
$GPRMC,094516.000,A,4604.6090,N,01107.2150,E,1.13,154.93,100124,,,A*66
$GPVTG,154.93,T,,M,1.13,N,2.10,K,A*37
$GPGGA,094516.000,4604.6090,N,01107.2150,E,1,7,1.47,218.0,M,47.7,M,,*51
$GPGSA,A,3,13,05,14,22,15,24,30,,,,,,1.72,1.47,0.88*07
$GPGSV,3,1,12,13,79,121,15,22,66,086,19,15,63,292,33,14,49,060,16*75
$GPGSV,3,2,12,24,33,275,31,05,27,212,17,30,26,077,16,17,24,109,14*75
$GPGSV,3,3,12,23,21,316,,19,13,136,21,20,01,188,,47,,,*40
$GPGLL,4604.6090,N,01107.2150,E,094516.000,A,A*5E
$GPTXT,01,01,02,ANTST
$GPRMC,094517.000,A,4604.6089,N,01107.2151,E,1.08,157.55,100124,,,A*6D
$GPVTG,157.55,T,,M,1.08,N,2.00,K,A*35
$GPGGA,094517.000,4604.6089,N,01107.2151,E,1,7,1.47,218.0,M,47.7,M,,*59
$GPGSA,A,3,13,05,14,22,15,24,30,,,,,,1.71,1.47,0.88*04
$GPGSV,3,1,12,13,79,121,15,22,66,086,20,15,63,292,33,14,49,060,16*7F
$GPGSV,3,2,12,24,33,275,31,05,27,212,17,30,26,077,15,17,24,109,14*76
$GPGSV,3,3,12,23,21,316,,19,13,136,21,20,01,188,,47,,,*40
$GPGLL,4604.6089,N,01107.2151,E,094517.000,A,A*56
$GPTXT,01,01,02,ANTST
$GPRMC,094518.000,A,4604.6088,N,01107.2152,E,1.01,158.64,100124,,,A*64
$GPVTG,158.64,T,,M,1.01,N,1.88,K,A*32
$GPGGA,094518.000,4604.6088,N,01107.2152,E,1,7,1.47,218.0,M,47.7,M,,*54
$GPGSA,A,3,13,05,14,22,15,24,30,,,,,,1.72,1.47,0.88*07
$GPGSV,3,1,12,13,79,121,15,22,66,086,20,15,63,292,33,14,49,060,16*7F
$GPGSV,3,2,12,24,33,275,31,05,27,212,17,30,26,077,16,17,24,109,15*74
$GPGSV,3,3,12,23,21,316,,19,13,136,21,20,01,188,,47,,,*40
$GPGLL,4604.6088,N,01107.2152,E,094518.000,A,A*5B
$GPTXT,01,01,02,ANTST
$GPRMC,094519.000,A,4604.6086,N,01107.2154,E,0.93,157.12,100124,,,A*69
$GPVTG,157.12,T,,M,0.93,N,1.72,K,A*33
$GPGGA,094519.000,4604.6086,N,01107.2154,E,1,7,1.47,218.1,M,47.7,M,,*5C
$GPGSA,A,3,13,05,14,22,15,24,30,,,,,,1.72,1.47,0.88*07
$GPGSV,3,1,12,13,79,121,15,22,66,086,20,15,63,292,33,14,49,060,16*7F
$GPGSV,3,2,12,24,33,275,31,05,27,212,18,30,26,077,13,17,24,109,15*7E
$GPGSV,3,3,12,23,21,316,,19,13,136,21,20,01,188,,49,,,*4E
$GPGLL,4604.6086,N,01107.2154,E,094519.000,A,A*52
$GPTXT,01,01,02,ANTST
$GPRMC,094520.000,A,4604.6081,N,01107.2158,E,0.98,153.41,100124,,,A*61
$GPVTG,153.41,T,,M,0.98,N,1.81,K,A*36
$GPGGA,094520.000,4604.6081,N,01107.2158,E,1,7,1.47,218.1,M,47.7,M,,*5D
$GPGSA,A,3,13,05,14,22,15,24,30,,,,,,1.72,1.47,0.88*07
$GPGSV,3,1,12,13,79,121,15,22,66,086,20,15,63,292,33,14,49,060,16*7F
$GPGSV,3,2,12,24,33,275,31,05,27,212,18,30,26,077,14,17,24,109,14*78
$GPGSV,3,3,12,23,21,316,,19,13,136,22,20,01,188,,49,,,*4D
$GPGLL,4604.6081,N,01107.2158,E,094520.000,A,A*53
$GPTXT,01,01,02,ANTST
$GPRMC,094521.000,A,4604.6082,N,01107.2151,E,0.89,155.80,100124,,,A*61
$GPVTG,155.80,T,,M,0.89,N,1.65,K,A*37
$GPGGA,094521.000,4604.6082,N,01107.2151,E,1,7,1.47,217.9,M,47.7,M,,*51
$GPGSA,A,3,13,05,14,22,15,24,30,,,,,,1.72,1.47,0.88*07
$GPGSV,3,1,12,13,79,121,15,22,66,086,19,15,63,292,32,14,49,060,16*74
$GPGSV,3,2,12,24,33,275,31,05,27,212,18,30,26,077,13,17,24,109,14*7F
$GPGSV,3,3,12,23,21,316,,19,13,136,22,20,01,188,,49,,,*4D
$GPGLL,4604.6082,N,01107.2151,E,094521.000,A,A*58
$GPTXT,01,01,02,ANTST
$GPRMC,094522.000,A,4604.6082,N,01107.2156,E,0.90,151.60,100124,,,A*67
$GPVTG,151.60,T,,M,0.90,N,1.67,K,A*37
$GPGGA,094522.000,4604.6082,N,01107.2156,E,1,7,1.47,217.8,M,47.7,M,,*54
$GPGSA,A,3,13,05,14,22,15,24,30,,,,,,1.71,1.47,0.88*04
$GPGSV,3,1,12,13,79,121,15,22,66,086,19,15,63,292,32,14,49,060,16*74
$GPGSV,3,2,12,24,33,275,31,05,27,212,19,30,26,077,13,17,24,109,14*7E
$GPGSV,3,3,12,23,21,316,,19,13,136,21,20,01,188,,49,,,*4E
$GPGLL,4604.6082,N,01107.2156,E,094522.000,A,A*5C
$GPTXT,01,01,02,ANTST
$GPRMC,094523.000,A,4604.6079,N,01107.2156,E,0.85,156.69,100124,,,A*68
$GPVTG,156.69,T,,M,0.85,N,1.58,K,A*31
$GPGGA,094523.000,4604.6079,N,01107.2156,E,1,7,1.47,217.9,M,47.7,M,,*50
$GPGSA,A,3,13,05,14,22,15,24,30,,,,,,1.72,1.47,0.88*07
$GPGSV,3,1,12,13,79,121,14,22,66,086,19,15,63,292,32,14,49,060,16*75
$GPGSV,3,2,12,24,33,275,31,05,27,212,19,30,26,077,13,17,24,109,14*7E
$GPGSV,3,3,12,23,21,316,,19,13,136,21,20,01,188,,49,,,*4E
$GPGLL,4604.6079,N,01107.2156,E,094523.000,A,A*59
$GPTXT,01,01,02,ANTST
$GPRMC,094524.000,A,4604.6075,N,01107.2157,E,0.90,156.28,100124,,,A*63
$GPVTG,156.28,T,,M,0.90,N,1.67,K,A*3C
$GPGGA,094524.000,4604.6075,N,01107.2157,E,1,7,1.47,217.9,M,47.7,M,,*5A
$GPGSA,A,3,13,05,14,22,15,24,30,,,,,,1.71,1.47,0.88*04
$GPGSV,3,1,12,13,79,121,14,22,66,086,19,15,63,292,32,14,49,060,16*75
$GPGSV,3,2,12,24,33,275,31,05,27,212,20,30,26,077,13,17,24,109,14*74
$GPGSV,3,3,12,23,21,316,,19,13,136,20,20,01,188,,49,,,*4F
$GPGLL,4604.6075,N,01107.2157,E,094524.000,A,A*53
$GPTXT,01,01,02,ANTST
$GPRMC,094525.000,A,4604.6073,N,01107.2158,E,0.85,155.11,100124,,,A*66
$GPVTG,155.11,T,,M,0.85,N,1.58,K,A*3D
$GPGGA,094525.000,4604.6073,N,01107.2158,E,1,7,1.47,217.9,M,47.7,M,,*52
$GPGSA,A,3,13,05,14,22,15,24,30,,,,,,1.72,1.47,0.88*07
$GPGSV,3,1,12,13,79,121,11,22,66,086,19,15,63,292,32,14,49,060,17*71
$GPGSV,3,2,12,37,36,165,,24,33,275,31,05,27,212,20,30,26,077,14*7D
$GPGSV,3,3,12,17,24,109,14,23,21,316,,19,13,136,20,20,01,188,*7F
$GPGLL,4604.6073,N,01107.2158,E,094525.000,A,A*5B
$GPTXT,01,01,02,
$GPRMC,094526.000,A,4604.6070,N,01107.2160,E,0.88,151.68,100124,,,A*6A
$GPVTG,151.68,T,,M,0.88,N,1.64,K,A*35
$GPGGA,094526.000,4604.6070,N,01107.2160,E,1,7,1.47,217.9,M,47.7,M,,*59
$GPGSA,A,3,13,05,14,22,15,24,30,,,,,,1.71,1.47,0.88*04
$GPGSV,3,1,12,13,79,121,12,22,66,086,19,15,63,292,32,14,49,060,18*7D
$GPGSV,3,2,12,37,36,165,,24,33,275,31,05,27,212,21,30,26,077,13*7B
$GPGSV,3,3,12,17,24,109,14,23,21,316,,19,13,136,20,20,01,188,*7F
$GPGLL,4604.6070,N,01107.2160,E,094526.000,A,A*50
$GPTXT,01,01,02,
$GPRMC,094527.000,A,4604.6070,N,01107.2162,E,0.86,145.56,100124,,,A*6F
$GPVTG,145.56,T,,M,0.86,N,1.60,K,A*37
$GPGGA,094527.000,4604.6070,N,01107.2162,E,1,7,1.47,217.9,M,47.7,M,,*5A
$GPGSA,A,3,13,05,14,22,15,24,30,,,,,,1.71,1.47,0.88*04
$GPGSV,3,1,12,13,79,121,12,22,66,086,19,15,63,292,32,14,49,060,18*7D
$GPGSV,3,2,12,37,36,165,,24,33,275,31,05,27,212,21,30,26,077,12*7A
$GPGSV,3,3,12,17,24,109,13,23,21,316,,19,13,136,20,20,01,188,*78
$GPGLL,4604.6070,N,01107.2162,E,094527.000,A,A*53
$GPTXT,01,01,02,
$GPRMC,094528.000,A,4604.6070,N,01107.2167,E,0.84,136.76,100124,,,A*61
$GPVTG,136.76,T,,M,0.84,N,1.55,K,A*35
$GPGGA,094528.000,4604.6070,N,01107.2167,E,1,7,1.47,217.9,M,47.7,M,,*50
$GPGSA,A,3,13,05,14,22,15,24,30,,,,,,1.71,1.47,0.88*04
$GPGSV,3,1,12,13,79,121,13,22,66,086,19,15,63,292,32,14,49,060,18*7C
$GPGSV,3,2,12,37,36,165,,24,33,275,31,05,27,212,21,30,26,077,13*7B
$GPGSV,3,3,12,17,24,109,13,23,21,316,,19,13,136,20,20,01,188,*78
$GPGLL,4604.6070,N,01107.2167,E,094528.000,A,A*59
$GPTXT,01,01,02,
$GPRMC,094529.000,A,4604.6071,N,01107.2172,E,0.00,130.31,100124,,,A*6C
$GPVTG,130.31,T,,M,0.00,N,0.00,K,A*3D
$GPGGA,094529.000,4604.6071,N,01107.2172,E,1,6,1.50,218.0,M,47.7,M,,*55
$GPGSA,A,3,05,14,22,15,24,30,,,,,,,1.76,1.50,0.92*0C
$GPGSV,3,1,12,13,78,121,11,22,66,086,19,15,63,292,32,14,49,060,18*7F
$GPGSV,3,2,12,37,36,165,,24,33,275,31,05,27,212,21,30,26,077,15*7D
$GPGSV,3,3,12,17,24,109,14,23,21,316,,19,13,136,20,20,01,188,*7F
$GPGLL,4604.6071,N,01107.2172,E,094529.000,A,A*5D
$GPTXT,01,01,02,AN
$GPRMC,094530.000,A,4604.6073,N,01107.2176,E,0.00,123.86,100124,,,A*6C
$GPVTG,123.86,T,,M,0.00,N,0.00,K,A*33
$GPGGA,094530.000,4604.6073,N,01107.2176,E,1,7,1.47,218.0,M,47.7,M,,*5C
$GPGSA,A,3,13,05,14,22,15,24,30,,,,,,1.71,1.47,0.88*04
$GPGSV,3,1,12,13,78,121,12,22,66,086,19,15,63,292,32,14,49,060,18*7C
$GPGSV,3,2,12,37,36,165,,24,33,275,31,05,27,212,21,30,26,077,13*7B
$GPGSV,3,3,12,17,24,109,14,23,21,316,,19,13,136,20,20,01,188,*7F
$GPGLL,4604.6073,N,01107.2176,E,094530.000,A,A*53
$GPTXT,01,01,02,
$GPRMC,094531.000,A,4604.6073,N,01107.2179,E,0.00,122.37,100124,,,A*69
$GPVTG,122.37,T,,M,0.00,N,0.00,K,A*38
$GPGGA,094531.000,4604.6073,N,01107.2179,E,1,7,1.47,218.0,M,47.7,M,,*52
$GPGSA,A,3,13,05,14,22,15,24,30,,,,,,1.71,1.47,0.88*04
$GPGSV,3,1,12,13,78,121,13,22,66,086,19,15,63,292,32,14,49,060,18*7D
$GPGSV,3,2,12,37,36,165,,24,33,275,31,05,27,212,22,30,26,077,14*7F
$GPGSV,3,3,12,17,24,109,14,23,21,316,,19,13,136,20,20,01,188,*7F
$GPGLL,4604.6073,N,01107.2179,E,094531.000,A,A*5D
$GPTXT,01,01,02,
$GPRMC,094532.000,A,4604.6073,N,01107.2179,E,0.00,122.37,100124,,,A*6A
$GPVTG,122.37,T,,M,0.00,N,0.00,K,A*38
$GPGGA,094532.000,4604.6073,N,01107.2179,E,1,7,1.47,218.0,M,47.7,M,,*51
$GPGSA,A,3,13,05,14,22,15,24,30,,,,,,1.71,1.47,0.88*04
$GPGSV,3,1,12,13,78,121,13,22,66,086,18,15,63,292,32,14,49,060,18*7C
$GPGSV,3,2,12,37,36,165,,24,33,275,31,05,27,212,22,30,26,077,14*7F
$GPGSV,3,3,12,17,24,109,14,23,21,316,,19,13,136,20,20,01,188,*7F
$GPGLL,4604.6073,N,01107.2179,E,094532.000,A,A*5E
$GPTXT,01,01,02,
$GPRMC,094533.000,A,4604.6073,N,01107.2179,E,0.00,122.37,100124,,,A*6B
$GPVTG,122.37,T,,M,0.00,N,0.00,K,A*38
$GPGGA,094533.000,4604.6073,N,01107.2179,E,1,7,1.47,218.0,M,47.7,M,,*50
$GPGSA,A,3,13,05,14,22,15,24,30,,,,,,1.71,1.47,0.88*04
$GPGSV,3,1,12,13,78,121,13,22,66,086,18,15,63,292,32,14,49,060,18*7C
$GPGSV,3,2,12,37,36,165,,24,33,275,31,05,27,212,22,30,26,077,11*7A
$GPGSV,3,3,12,17,24,109,14,23,21,316,,19,13,136,20,20,01,188,*7F
$GPGLL,4604.6073,N,01107.2179,E,094533.000,A,A*5F
$GPTXT,01,01,02,
$GPRMC,094534.000,A,4604.6073,N,01107.2179,E,0.00,122.37,100124,,,A*6C
$GPVTG,122.37,T,,M,0.00,N,0.00,K,A*38
$GPGGA,094534.000,4604.6073,N,01107.2179,E,1,6,1.50,218.0,M,47.7,M,,*50
$GPGSA,A,3,05,14,22,15,24,30,,,,,,,1.76,1.50,0.92*0C
$GPGSV,3,1,12,13,78,121,11,22,66,086,18,15,63,292,32,14,49,060,18*7E
$GPGSV,3,2,12,37,36,165,,24,33,275,31,05,27,212,22,30,26,077,14*7F
$GPGSV,3,3,12,17,24,109,14,23,21,316,,19,13,136,20,20,01,188,*7F
$GPGLL,4604.6073,N,01107.2179,E,094534.000,A,A*58
$GPTXT,01,01,02,AN
$GPRMC,094535.000,A,4604.6073,N,01107.2179,E,0.00,122.37,100124,,,A*6D
$GPVTG,122.37,T,,M,0.00,N,0.00,K,A*38
$GPGGA,094535.000,4604.6073,N,01107.2179,E,1,7,1.47,218.0,M,47.7,M,,*56
$GPGSA,A,3,13,05,14,22,15,24,30,,,,,,1.71,1.47,0.88*04
$GPGSV,3,1,12,13,78,121,12,22,66,086,18,15,63,292,32,14,49,060,18*7D
$GPGSV,3,2,12,39,34,161,,24,33,275,31,05,27,212,22,30,26,077,12*71
$GPGSV,3,3,12,17,24,109,14,23,21,316,,19,13,135,21,20,01,188,*7D
$GPGLL,4604.6073,N,01107.2179,E,094535.000,A,A*59
$GPTXT,01,01,02,
$GPRMC,094536.000,A,4604.6073,N,01107.2179,E,0.00,122.37,100124,,,A*6E
$GPVTG,122.37,T,,M,0.00,N,0.00,K,A*38
$GPGGA,094536.000,4604.6073,N,01107.2179,E,1,6,1.50,218.0,M,47.7,M,,*52
$GPGSA,A,3,05,14,22,15,24,30,,,,,,,1.76,1.50,0.92*0C
$GPGSV,3,1,12,13,78,121,,22,66,086,18,15,63,292,32,14,49,060,18*7E
$GPGSV,3,2,12,39,34,161,,24,33,275,31,05,27,212,22,30,26,077,14*77
$GPGSV,3,3,12,17,24,109,14,23,21,316,,19,13,135,21,20,01,187,*72
$GPGLL,4604.6073,N,01107.2179,E,094536.000,A,A*5A
$GPTXT,01,01,02,ANTS
$GPRMC,094537.000,A,4604.6073,N,01107.2179,E,0.00,122.37,100124,,,A*6F
$GPVTG,122.37,T,,M,0.00,N,0.00,K,A*38
$GPGGA,094537.000,4604.6073,N,01107.2179,E,1,6,1.50,218.0,M,47.7,M,,*53
$GPGSA,A,3,05,14,22,15,24,30,,,,,,,1.76,1.50,0.92*0C
$GPGSV,3,1,12,13,78,121,,22,66,086,18,15,63,292,32,14,49,060,18*7E
$GPGSV,3,2,12,39,34,161,,24,33,275,31,05,27,212,22,30,26,077,13*70
$GPGSV,3,3,12,17,24,109,14,23,21,316,,19,13,135,21,20,01,187,*72
$GPGLL,4604.6073,N,01107.2179,E,094537.000,A,A*5B
$GPTXT,01,01,02,ANTS
$GPRMC,094538.000,A,4604.6073,N,01107.2179,E,0.00,122.37,100124,,,A*60
$GPVTG,122.37,T,,M,0.00,N,0.00,K,A*38
$GPGGA,094538.000,4604.6073,N,01107.2179,E,1,6,1.50,218.0,M,47.7,M,,*5C
$GPGSA,A,3,05,14,22,15,24,30,,,,,,,1.76,1.50,0.92*0C
$GPGSV,3,1,12,13,78,121,,22,66,085,18,15,63,292,32,14,49,060,18*7D
$GPGSV,3,2,12,39,34,161,,24,33,275,31,05,27,212,22,30,26,077,13*70
$GPGSV,3,3,12,17,24,109,14,23,21,316,,19,13,135,22,20,01,187,*71
$GPGLL,4604.6073,N,01107.2179,E,094538.000,A,A*54
$GPTXT,01,01,02,ANTS
$GPRMC,094539.000,A,4604.6073,N,01107.2179,E,0.00,122.37,100124,,,A*61
$GPVTG,122.37,T,,M,0.00,N,0.00,K,A*38
$GPGGA,094539.000,4604.6073,N,01107.2179,E,1,6,1.50,218.0,M,47.7,M,,*5D
$GPGSA,A,3,05,14,22,15,24,30,,,,,,,1.76,1.50,0.92*0C
$GPGSV,3,1,12,13,78,121,,22,66,085,18,15,63,292,32,14,49,060,18*7D
$GPGSV,3,2,12,39,34,161,,24,33,275,31,05,27,212,22,30,26,077,13*70
$GPGSV,3,3,12,17,24,109,14,23,21,316,,19,13,135,22,20,01,187,*71
$GPGLL,4604.6073,N,01107.2179,E,094539.000,A,A*55
$GPTXT,01,01,02,ANTS
$GPRMC,094540.000,A,4604.6073,N,01107.2179,E,0.00,122.37,100124,,,A*6F
$GPVTG,122.37,T,,M,0.00,N,0.00,K,A*38
$GPGGA,094540.000,4604.6073,N,01107.2179,E,1,6,1.50,218.0,M,47.7,M,,*53
$GPGSA,A,3,05,14,22,15,24,30,,,,,,,1.76,1.50,0.92*0C
$GPGSV,3,1,12,13,78,121,,22,66,085,18,15,63,292,32,14,49,060,18*7D
$GPGSV,3,2,12,39,34,161,,24,33,275,31,05,27,212,22,30,26,077,12*71
$GPGSV,3,3,12,17,24,109,14,23,21,316,,19,13,135,22,20,01,187,*71
$GPGLL,4604.6073,N,01107.2179,E,094540.000,A,A*5B
$GPTXT,01,01,02,ANTS
$GPRMC,094541.000,A,4604.6073,N,01107.2179,E,0.00,122.37,100124,,,A*6E
$GPVTG,122.37,T,,M,0.00,N,0.00,K,A*38
$GPGGA,094541.000,4604.6073,N,01107.2179,E,1,6,1.51,218.0,M,47.7,M,,*53
$GPGSA,A,3,05,14,22,15,24,30,,,,,,,1.76,1.51,0.92*0D
$GPGSV,3,1,12,13,78,121,,22,66,085,18,15,63,292,32,14,49,060,18*7D
$GPGSV,3,2,12,39,34,161,,24,33,275,31,05,27,212,22,30,26,077,13*70
$GPGSV,3,3,12,17,24,109,13,23,21,316,,19,13,135,21,20,01,187,*75
$GPGLL,4604.6073,N,01107.2179,E,094541.000,A,A*5A
$GPTXT,01,01,02,ANTS
$GPRMC,094542.000,A,4604.6073,N,01107.2179,E,0.00,122.37,100124,,,A*6D
$GPVTG,122.37,T,,M,0.00,N,0.00,K,A*38
$GPGGA,094542.000,4604.6073,N,01107.2179,E,1,5,1.60,218.0,M,47.7,M,,*51
$GPGSA,A,3,05,14,22,15,24,,,,,,,,1.87,1.60,0.97*07
$GPGSV,3,1,12,13,78,121,,22,66,085,18,15,63,292,32,14,49,060,18*7D
$GPGSV,3,2,12,39,34,161,,24,33,275,31,05,27,212,22,30,26,077,*72
$GPGSV,3,3,12,17,24,109,13,23,21,316,,19,13,135,21,20,01,187,*75
$GPGLL,4604.6073,N,01107.2179,E,094542.000,A,A*59
$GPTXT,01,01,02,ANTSTATU
$GPRMC,094543.000,A,4604.6073,N,01107.2179,E,0.00,122.37,100124,,,A*6C
$GPVTG,122.37,T,,M,0.00,N,0.00,K,A*38
$GPGGA,094543.000,4604.6073,N,01107.2179,E,1,5,1.60,218.0,M,47.7,M,,*50
$GPGSA,A,3,05,14,22,15,24,,,,,,,,1.87,1.60,0.97*07
$GPGSV,3,1,12,13,78,121,,22,66,085,18,15,63,292,32,14,49,060,18*7D
$GPGSV,3,2,12,39,34,161,,24,33,275,31,05,27,212,22,30,26,077,*72
$GPGSV,3,3,12,17,24,109,13,23,21,316,,19,13,135,21,20,01,187,*75
$GPGLL,4604.6073,N,01107.2179,E,094543.000,A,A*58
$GPTXT,01,01,02,ANTSTATU
$GPRMC,094544.000,A,4604.6073,N,01107.2179,E,0.00,122.37,100124,,,A*6B
$GPVTG,122.37,T,,M,0.00,N,0.00,K,A*38
$GPGGA,094544.000,4604.6073,N,01107.2179,E,1,6,1.50,218.0,M,47.7,M,,*57
$GPGSA,A,3,05,14,22,15,24,30,,,,,,,1.76,1.50,0.92*0C
$GPGSV,3,1,12,13,78,121,,22,66,085,18,15,63,292,32,14,49,060,18*7D
$GPGSV,3,2,12,39,34,161,,24,33,275,31,05,27,212,22,30,26,077,14*77
$GPGSV,3,3,12,17,24,109,13,23,21,316,,19,13,135,21,20,01,187,*75
$GPGLL,4604.6073,N,01107.2179,E,094544.000,A,A*5F
$GPTXT,01,01,02,ANTS
$GPRMC,094545.000,A,4604.6073,N,01107.2179,E,0.00,122.37,100124,,,A*6A
$GPVTG,122.37,T,,M,0.00,N,0.00,K,A*38
$GPGGA,094545.000,4604.6073,N,01107.2179,E,1,6,1.50,218.0,M,47.7,M,,*56
$GPGSA,A,3,05,14,22,15,24,30,,,,,,,1.76,1.50,0.92*0C
$GPGSV,3,1,12,13,78,121,,22,66,085,18,15,63,292,32,14,49,060,18*7D
$GPGSV,3,2,12,24,33,275,31,33,30,214,,05,27,212,22,30,26,077,12*7E
$GPGSV,3,3,12,17,24,109,12,23,21,316,,19,13,135,21,20,01,187,*74
$GPGLL,4604.6073,N,01107.2179,E,094545.000,A,A*5E
$GPTXT,01,01,02,ANTS
$GPRMC,094546.000,A,4604.6073,N,01107.2179,E,0.00,122.37,100124,,,A*69
$GPVTG,122.37,T,,M,0.00,N,0.00,K,A*38
$GPGGA,094546.000,4604.6073,N,01107.2179,E,1,6,1.50,218.0,M,47.7,M,,*55
$GPGSA,A,3,05,14,22,15,24,30,,,,,,,1.76,1.50,0.92*0C
$GPGSV,3,1,12,13,78,121,,22,66,085,18,15,63,292,32,14,49,060,18*7D
$GPGSV,3,2,12,24,33,275,31,33,30,214,,05,27,212,22,30,26,077,12*7E
$GPGSV,3,3,12,17,24,109,12,23,21,316,,19,13,135,21,20,01,187,*74
$GPGLL,4604.6073,N,01107.2179,E,094546.000,A,A*5D
$GPTXT,01,01,02,ANTS
$GPRMC,094547.000,A,4604.6073,N,01107.2179,E,0.00,122.37,100124,,,A*68
$GPVTG,122.37,T,,M,0.00,N,0.00,K,A*38
$GPGGA,094547.000,4604.6073,N,01107.2179,E,1,6,1.50,218.0,M,47.7,M,,*54
$GPGSA,A,3,05,14,22,15,24,30,,,,,,,1.76,1.50,0.92*0C
$GPGSV,3,1,12,13,78,121,,22,66,085,18,15,63,292,32,14,49,060,18*7D
$GPGSV,3,2,12,24,33,275,31,33,30,214,,05,27,212,22,30,26,077,12*7E
$GPGSV,3,3,12,17,24,109,,23,21,316,,19,13,135,21,20,01,187,*77
$GPGLL,4604.6073,N,01107.2179,E,094547.000,A,A*5C
$GPTXT,01,01,02,ANTSTA
$GPRMC,094548.000,A,4604.6073,N,01107.2179,E,0.00,122.37,100124,,,A*67
$GPVTG,122.37,T,,M,0.00,N,0.00,K,A*38
$GPGGA,094548.000,4604.6073,N,01107.2179,E,1,6,1.50,218.0,M,47.7,M,,*5B
$GPGSA,A,3,05,14,22,15,24,30,,,,,,,1.76,1.50,0.92*0C
$GPGSV,3,1,12,13,78,121,,22,66,085,18,15,63,292,32,14,49,060,18*7D
$GPGSV,3,2,12,24,33,275,31,33,30,214,,05,27,212,22,30,26,077,13*7F
$GPGSV,3,3,12,17,24,109,,23,21,316,,19,13,135,21,20,01,187,*77
$GPGLL,4604.6073,N,01107.2179,E,094548.000,A,A*53
$GPTXT,01,01,02,ANTSTA
$GPRMC,094549.000,A,4604.6073,N,01107.2179,E,0.00,122.37,100124,,,A*66
$GPVTG,122.37,T,,M,0.00,N,0.00,K,A*38
$GPGGA,094549.000,4604.6073,N,01107.2179,E,1,6,1.50,218.0,M,47.7,M,,*5A
$GPGSA,A,3,05,14,22,15,24,30,,,,,,,1.76,1.50,0.92*0C
$GPGSV,3,1,12,13,78,121,,22,66,085,18,15,63,292,32,14,49,060,17*72
$GPGSV,3,2,12,24,33,275,31,33,30,214,,05,27,212,22,30,26,077,13*7F
$GPGSV,3,3,12,17,24,109,,23,21,316,,19,13,135,21,20,01,187,*77
$GPGLL,4604.6073,N,01107.2179,E,094549.000,A,A*52
$GPTXT,01,01,02,ANTSTA
$GPRMC,094550.000,A,4604.6073,N,01107.2179,E,0.00,122.37,100124,,,A*6E
$GPVTG,122.37,T,,M,0.00,N,0.00,K,A*38
$GPGGA,094550.000,4604.6073,N,01107.2179,E,1,6,1.50,218.0,M,47.7,M,,*52
$GPGSA,A,3,05,14,22,15,24,30,,,,,,,1.76,1.50,0.92*0C
$GPGSV,3,1,12,13,78,121,,22,66,085,18,15,63,292,32,14,49,060,17*72
$GPGSV,3,2,12,24,33,275,31,33,30,214,,05,27,212,22,30,26,077,16*7A
$GPGSV,3,3,12,17,24,109,,23,21,316,,19,13,135,22,20,01,187,*74
$GPGLL,4604.6073,N,01107.2179,E,094550.000,A,A*5A
$GPTXT,01,01,02,ANTSTA
$GPRMC,094551.000,A,4604.6073,N,01107.2179,E,0.00,122.37,100124,,,A*6F
$GPVTG,122.37,T,,M,0.00,N,0.00,K,A*38
$GPGGA,094551.000,4604.6073,N,01107.2179,E,1,7,1.47,218.0,M,47.7,M,,*54
$GPGSA,A,3,13,05,14,22,15,24,30,,,,,,1.71,1.47,0.88*04
$GPGSV,3,1,12,13,78,121,17,22,66,085,18,15,63,292,31,14,49,060,17*77
$GPGSV,3,2,12,24,33,275,31,33,30,214,,05,27,212,21,30,26,077,14*7B
$GPGSV,3,3,12,17,24,109,,23,21,316,,19,13,135,22,20,01,187,*74
$GPGLL,4604.6073,N,01107.2179,E,094551.000,A,A*5B
$GPTXT,01,01,02,AN
$GPRMC,094552.000,A,4604.6073,N,01107.2179,E,0.00,122.37,100124,,,A*6C
$GPVTG,122.37,T,,M,0.00,N,0.00,K,A*38
$GPGGA,094552.000,4604.6073,N,01107.2179,E,1,7,1.47,218.0,M,47.7,M,,*57
$GPGSA,A,3,13,05,14,22,15,24,30,,,,,,1.71,1.47,0.88*04
$GPGSV,3,1,12,13,78,121,17,22,66,085,18,15,63,292,31,14,49,060,17*77
$GPGSV,3,2,12,24,33,275,31,33,30,214,,05,27,212,21,30,26,077,12*7D
$GPGSV,3,3,12,17,24,109,,23,21,316,,19,13,135,22,20,01,187,*74
$GPGLL,4604.6073,N,01107.2179,E,094552.000,A,A*58
$GPTXT,01,01,02,AN
$GPRMC,094553.000,A,4604.6073,N,01107.2179,E,0.00,122.37,100124,,,A*6D
$GPVTG,122.37,T,,M,0.00,N,0.00,K,A*38
$GPGGA,094553.000,4604.6073,N,01107.2179,E,1,7,1.47,218.0,M,47.7,M,,*56
$GPGSA,A,3,13,05,14,22,15,24,30,,,,,,1.71,1.47,0.88*04
$GPGSV,3,1,12,13,78,121,16,22,66,085,17,15,63,292,31,14,49,060,17*79
$GPGSV,3,2,12,24,33,275,30,33,30,214,,05,27,212,21,30,26,077,13*7D
$GPGSV,3,3,12,17,24,109,,23,21,316,,19,13,135,22,20,01,187,*74
$GPGLL,4604.6073,N,01107.2179,E,094553.000,A,A*59
$GPTXT,01,01,02,AN
$GPRMC,094554.000,A,4604.6073,N,01107.2179,E,0.00,122.37,100124,,,A*6A
$GPVTG,122.37,T,,M,0.00,N,0.00,K,A*38
$GPGGA,094554.000,4604.6073,N,01107.2179,E,1,7,1.47,218.0,M,47.7,M,,*51
$GPGSA,A,3,13,05,14,22,15,24,30,,,,,,1.71,1.47,0.88*04
$GPGSV,3,1,12,13,78,121,15,22,66,085,17,15,63,292,31,14,49,060,17*7A
$GPGSV,3,2,12,24,33,275,30,05,27,212,21,30,26,077,14,17,24,109,*76
$GPGSV,3,3,12,23,21,316,,40,16,118,,19,13,135,21,20,01,187,*74
$GPGLL,4604.6073,N,01107.2179,E,094554.000,A,A*5E
$GPTXT,01,01,02,AN
$GPRMC,094555.000,A,4604.6073,N,01107.2179,E,0.00,122.37,100124,,,A*6B
$GPVTG,122.37,T,,M,0.00,N,0.00,K,A*38
$GPGGA,094555.000,4604.6073,N,01107.2179,E,1,7,1.47,218.0,M,47.7,M,,*50
$GPGSA,A,3,13,05,14,22,15,24,30,,,,,,1.71,1.47,0.88*04
$GPGSV,3,1,12,13,78,121,16,22,66,085,16,15,63,292,31,14,49,060,16*79
$GPGSV,3,2,12,24,33,275,30,05,27,212,21,30,26,077,14,17,24,109,*76
$GPGSV,3,3,12,23,21,316,,40,16,118,,19,13,135,21,20,01,187,*74
$GPGLL,4604.6073,N,01107.2179,E,094555.000,A,A*5F
$GPTXT,01,01,02,AN
$GPRMC,094556.000,A,4604.6073,N,01107.2179,E,0.00,122.37,100124,,,A*68
$GPVTG,122.37,T,,M,0.00,N,0.00,K,A*38
$GPGGA,094556.000,4604.6073,N,01107.2179,E,1,7,1.47,218.0,M,47.7,M,,*53
$GPGSA,A,3,13,05,14,22,15,24,30,,,,,,1.71,1.47,0.88*04
$GPGSV,3,1,12,13,78,121,16,22,66,085,16,15,63,292,31,14,49,060,15*7A
$GPGSV,3,2,12,24,33,275,31,05,27,212,22,30,26,077,14,17,24,109,*74
$GPGSV,3,3,12,23,21,316,,40,16,118,,19,13,135,21,20,01,187,*74
$GPGLL,4604.6073,N,01107.2179,E,094556.000,A,A*5C
$GPTXT,01,01,02,AN
$GPRMC,094557.000,A,4604.6073,N,01107.2179,E,0.00,122.37,100124,,,A*69
$GPVTG,122.37,T,,M,0.00,N,0.00,K,A*38
$GPGGA,094557.000,4604.6073,N,01107.2179,E,1,7,1.47,218.0,M,47.7,M,,*52
$GPGSA,A,3,13,05,14,22,15,24,30,,,,,,1.71,1.47,0.88*04
$GPGSV,3,1,12,13,78,121,16,22,66,085,16,15,63,292,31,14,49,060,15*7A
$GPGSV,3,2,12,24,33,275,31,05,27,212,22,30,26,077,15,17,24,109,*75
$GPGSV,3,3,12,23,21,316,,40,16,118,,19,13,135,22,20,01,187,*77
$GPGLL,4604.6073,N,01107.2179,E,094557.000,A,A*5D
$GPTXT,01,01,02,AN
$GPRMC,094558.000,A,4604.6073,N,01107.2179,E,0.00,122.37,100124,,,A*66
$GPVTG,122.37,T,,M,0.00,N,0.00,K,A*38
$GPGGA,094558.000,4604.6073,N,01107.2179,E,1,7,1.47,218.0,M,47.7,M,,*5D
$GPGSA,A,3,13,05,14,22,15,24,30,,,,,,1.71,1.47,0.88*04
$GPGSV,3,1,12,13,78,121,16,22,66,085,16,15,63,292,31,14,49,060,16*79
$GPGSV,3,2,12,24,33,275,31,05,27,212,21,30,26,077,16,17,24,109,*75
$GPGSV,3,3,12,23,21,316,,40,16,118,,19,13,135,22,20,01,187,*77
$GPGLL,4604.6073,N,01107.2179,E,094558.000,A,A*52
$GPTXT,01,01,02,AN
$GPRMC,094559.000,A,4604.6073,N,01107.2179,E,0.00,122.37,100124,,,A*67
$GPVTG,122.37,T,,M,0.00,N,0.00,K,A*38
$GPGGA,094559.000,4604.6073,N,01107.2179,E,1,7,1.47,218.0,M,47.7,M,,*5C
$GPGSA,A,3,13,05,14,22,15,24,30,,,,,,1.71,1.47,0.88*04
$GPGSV,3,1,12,13,78,121,16,22,66,085,16,15,63,292,31,14,49,060,16*79
$GPGSV,3,2,12,24,33,275,31,05,27,212,21,30,26,077,16,17,24,109,*75
$GPGSV,3,3,12,23,21,316,,40,16,118,,19,13,135,21,20,01,187,*74
$GPGLL,4604.6073,N,01107.2179,E,094559.000,A,A*53
$GPTXT,01,01,02,AN
$GPRMC,094600.000,A,4604.6073,N,01107.2179,E,0.00,122.37,100124,,,A*68
$GPVTG,122.37,T,,M,0.00,N,0.00,K,A*38
$GPGGA,094600.000,4604.6073,N,01107.2179,E,1,7,1.47,218.0,M,47.7,M,,*53
$GPGSA,A,3,13,05,14,22,15,24,30,,,,,,1.71,1.47,0.88*04
$GPGSV,3,1,12,13,78,121,16,22,66,085,16,15,63,292,30,14,49,060,16*78
$GPGSV,3,2,12,24,33,275,31,05,27,212,21,30,26,077,15,17,24,109,*76
$GPGSV,3,3,12,23,21,316,,40,16,118,,19,13,135,21,20,01,187,*74
$GPGLL,4604.6073,N,01107.2179,E,094600.000,A,A*5C
$GPTXT,01,01,02,AN
$GPRMC,094601.000,A,4604.6073,N,01107.2179,E,0.00,122.37,100124,,,A*69
$GPVTG,122.37,T,,M,0.00,N,0.00,K,A*38
$GPGGA,094601.000,4604.6073,N,01107.2179,E,1,7,1.47,218.0,M,47.7,M,,*52
$GPGSA,A,3,13,05,14,22,15,24,30,,,,,,1.71,1.47,0.88*04
$GPGSV,3,1,12,13,78,121,16,22,66,085,16,15,63,292,30,14,49,060,16*78
$GPGSV,3,2,12,24,33,275,31,05,27,212,21,30,26,077,14,17,24,109,*77
$GPGSV,3,3,12,23,21,316,,40,16,118,,19,13,135,20,20,01,187,*75
$GPGLL,4604.6073,N,01107.2179,E,094601.000,A,A*5D
$GPTXT,01,01,02,AN
$GPRMC,094602.000,A,4604.6073,N,01107.2179,E,0.00,122.37,100124,,,A*6A
$GPVTG,122.37,T,,M,0.00,N,0.00,K,A*38
$GPGGA,094602.000,4604.6073,N,01107.2179,E,1,7,1.47,218.0,M,47.7,M,,*51
$GPGSA,A,3,13,05,14,22,15,24,30,,,,,,1.71,1.47,0.88*04
$GPGSV,3,1,12,13,78,121,16,22,66,085,15,15,63,292,30,14,49,060,15*78
$GPGSV,3,2,12,24,33,275,31,05,27,212,21,30,26,077,16,17,24,109,*75
$GPGSV,3,3,12,23,21,316,,40,16,118,,19,13,135,20,20,01,187,*75
$GPGLL,4604.6073,N,01107.2179,E,094602.000,A,A*5E
$GPTXT,01,01,02,AN
$GPRMC,094603.000,A,4604.6073,N,01107.2179,E,0.00,122.37,100124,,,A*6B
$GPVTG,122.37,T,,M,0.00,N,0.00,K,A*38
$GPGGA,094603.000,4604.6073,N,01107.2179,E,1,7,1.47,218.0,M,47.7,M,,*50
$GPGSA,A,3,13,05,14,22,15,24,30,,,,,,1.71,1.47,0.88*04
$GPGSV,3,1,12,13,78,121,15,22,66,085,17,15,63,292,30,14,49,060,15*79
$GPGSV,3,2,12,24,33,275,31,05,27,212,21,30,26,077,17,17,24,109,*74
$GPGSV,3,3,12,23,21,316,,44,15,117,,19,13,135,20,20,01,187,*7D
$GPGLL,4604.6073,N,01107.2179,E,094603.000,A,A*5F
$GPTXT,01,01,02,AN
$GPRMC,094604.000,A,4604.6073,N,01107.2179,E,0.00,122.37,100124,,,A*6C
$GPVTG,122.37,T,,M,0.00,N,0.00,K,A*38
$GPGGA,094604.000,4604.6073,N,01107.2179,E,1,7,1.47,218.0,M,47.7,M,,*57
$GPGSA,A,3,13,05,14,22,15,24,30,,,,,,1.71,1.47,0.88*04
$GPGSV,3,1,12,13,78,122,15,22,66,085,17,15,63,292,30,14,49,060,15*7A
$GPGSV,3,2,12,24,33,275,31,05,27,212,21,30,26,077,17,17,24,109,*74
$GPGSV,3,3,12,23,21,316,,44,15,117,,19,13,135,20,20,01,187,*7D
$GPGLL,4604.6073,N,01107.2179,E,094604.000,A,A*58
$GPTXT,01,01,02,AN
$GPRMC,094605.000,A,4604.6073,N,01107.2179,E,0.00,122.37,100124,,,A*6D
$GPVTG,122.37,T,,M,0.00,N,0.00,K,A*38
$GPGGA,094605.000,4604.6073,N,01107.2179,E,1,7,1.47,218.0,M,47.7,M,,*56
$GPGSA,A,3,13,05,14,22,15,24,30,,,,,,1.71,1.47,0.88*04
$GPGSV,3,1,12,13,78,122,15,22,66,085,15,15,63,292,29,14,49,060,16*73
$GPGSV,3,2,12,24,33,275,31,05,27,212,21,30,26,077,17,17,24,109,*74
$GPGSV,3,3,12,23,21,316,,44,15,117,,19,13,135,20,20,01,187,*7D
$GPGLL,4604.6073,N,01107.2179,E,094605.000,A,A*59
$GPTXT,01,01,02,AN
$GPRMC,094606.000,A,4604.6073,N,01107.2179,E,0.00,122.37,100124,,,A*6E
$GPVTG,122.37,T,,M,0.00,N,0.00,K,A*38
$GPGGA,094606.000,4604.6073,N,01107.2179,E,1,7,1.47,218.0,M,47.7,M,,*55
$GPGSA,A,3,13,05,14,22,15,24,30,,,,,,1.71,1.47,0.88*04
$GPGSV,3,1,12,13,78,122,15,22,66,085,14,15,63,291,29,14,49,060,16*71
$GPGSV,3,2,12,24,33,275,32,05,27,212,21,30,26,077,16,17,24,109,*76
$GPGSV,3,3,12,23,21,316,,44,15,117,,19,13,135,20,20,01,187,*7D
$GPGLL,4604.6073,N,01107.2179,E,094606.000,A,A*5A
$GPTXT,01,01,02,AN
$GPRMC,094607.000,A,4604.6073,N,01107.2179,E,0.00,122.37,100124,,,A*6F
$GPVTG,122.37,T,,M,0.00,N,0.00,K,A*38
$GPGGA,094607.000,4604.6073,N,01107.2179,E,1,7,1.47,218.0,M,47.7,M,,*54
$GPGSA,A,3,13,05,14,22,15,24,30,,,,,,1.71,1.47,0.88*04
$GPGSV,3,1,12,13,78,122,13,22,66,085,14,15,63,291,29,14,49,060,16*77
$GPGSV,3,2,12,24,33,275,32,05,27,212,21,30,26,077,15,17,24,109,*75
$GPGSV,3,3,12,23,21,316,,44,15,117,,19,13,135,20,20,01,187,*7D
$GPGLL,4604.6073,N,01107.2179,E,094607.000,A,A*5B
$GPTXT,01,01,02,AN
$GPRMC,094608.000,A,4604.6073,N,01107.2179,E,0.00,122.37,100124,,,A*60
$GPVTG,122.37,T,,M,0.00,N,0.00,K,A*38
$GPGGA,094608.000,4604.6073,N,01107.2179,E,1,7,1.47,218.0,M,47.7,M,,*5B
$GPGSA,A,3,13,05,14,22,15,24,30,,,,,,1.71,1.47,0.88*04
$GPGSV,3,1,12,13,78,122,13,22,66,085,14,15,63,291,28,14,49,060,16*76
$GPGSV,3,2,12,24,33,275,32,05,27,212,21,30,26,077,16,17,24,108,*77
$GPGSV,3,3,12,23,21,316,,44,15,117,,19,13,135,20,20,01,187,*7D
$GPGLL,4604.6073,N,01107.2179,E,094608.000,A,A*54
$GPTXT,01,01,02,AN
$GPRMC,094609.000,A,4604.6073,N,01107.2179,E,0.00,122.37,100124,,,A*61
$GPVTG,122.37,T,,M,0.00,N,0.00,K,A*38
$GPGGA,094609.000,4604.6073,N,01107.2179,E,1,7,1.47,218.0,M,47.7,M,,*5A
$GPGSA,A,3,13,05,14,22,15,24,30,,,,,,1.71,1.47,0.88*04
$GPGSV,3,1,12,13,78,122,13,22,66,085,16,15,63,291,28,14,49,060,16*74
$GPGSV,3,2,12,24,33,275,32,05,27,212,21,30,26,077,16,17,24,108,*77
$GPGSV,3,3,12,23,21,316,,44,15,117,,19,13,135,20,20,01,187,*7D
$GPGLL,4604.6073,N,01107.2179,E,094609.000,A,A*55
$GPTXT,01,01,02,AN
$GPRMC,094610.000,A,4604.6073,N,01107.2179,E,0.00,122.37,100124,,,A*69
$GPVTG,122.37,T,,M,0.00,N,0.00,K,A*38
$GPGGA,094610.000,4604.6073,N,01107.2179,E,1,7,1.47,218.0,M,47.7,M,,*52
$GPGSA,A,3,13,05,14,22,15,24,30,,,,,,1.71,1.47,0.88*04
$GPGSV,3,1,12,13,78,122,12,22,66,085,14,15,63,291,28,14,49,060,16*77
$GPGSV,3,2,12,24,33,275,32,05,27,212,20,30,26,077,15,17,24,108,*75
$GPGSV,3,3,12,23,21,316,,44,15,117,,19,13,135,20,20,01,187,*7D
$GPGLL,4604.6073,N,01107.2179,E,094610.000,A,A*5D
$GPTXT,01,01,02,AN
$GPRMC,094611.000,A,4604.6073,N,01107.2179,E,0.00,122.37,100124,,,A*68
$GPVTG,122.37,T,,M,0.00,N,0.00,K,A*38
$GPGGA,094611.000,4604.6073,N,01107.2179,E,1,7,1.47,218.0,M,47.7,M,,*53
$GPGSA,A,3,13,05,14,22,15,24,30,,,,,,1.71,1.47,0.88*04
$GPGSV,3,1,11,13,78,122,12,22,66,085,13,15,63,291,28,14,49,060,16*73
$GPGSV,3,2,11,24,33,275,32,05,27,212,20,30,26,077,16,17,24,108,*75
$GPGSV,3,3,11,23,21,316,,44,15,117,,19,13,135,20*43
$GPGLL,4604.6073,N,01107.2179,E,094611.000,A,A*5C
$GPTXT,01,01,02,ANTSTATUS=OPE
$GPRMC,094612.000,A,4604.6073,N,01107.2179,E,0.00,122.37,100124,,,A*6B
$GPVTG,122.37,T,,M,0.00,N,0.00,K,A*38
$GPGGA,094612.000,4604.6073,N,01107.2179,E,1,7,1.47,218.0,M,47.7,M,,*50
$GPGSA,A,3,13,05,14,22,15,24,30,,,,,,1.71,1.47,0.88*04
$GPGSV,3,1,11,13,78,122,14,22,66,085,14,15,63,291,28,14,49,060,16*72
$GPGSV,3,2,11,24,33,275,32,05,27,212,20,30,26,077,16,17,24,108,*75
$GPGSV,3,3,11,23,21,316,,44,15,117,,19,13,135,20*43
$GPGLL,4604.6073,N,01107.2179,E,094612.000,A,A*5F
$GPTXT,01,01,02,ANTSTATUS=OPE
$GPRMC,094613.000,A,4604.6073,N,01107.2179,E,0.00,122.37,100124,,,A*6A
$GPVTG,122.37,T,,M,0.00,N,0.00,K,A*38
$GPGGA,094613.000,4604.6073,N,01107.2179,E,1,7,1.47,218.0,M,47.7,M,,*51
$GPGSA,A,3,13,05,14,22,15,24,30,,,,,,1.71,1.47,0.88*04
$GPGSV,3,1,11,13,78,122,14,22,65,084,11,15,63,291,27,14,49,060,16*7A
$GPGSV,3,2,11,24,33,275,32,05,27,212,20,30,26,077,16,17,24,108,*75
$GPGSV,3,3,11,23,21,316,,19,13,135,20,34,,,*77
$GPGLL,4604.6073,N,01107.2179,E,094613.000,A,A*5E
$GPTXT,01,01,02,ANTSTATUS=OPEN*2B
$GPRMC,094614.000,A,4604.6073,N,01107.2179,E,0.00,122.37,100124,,,A*6D
$GPVTG,122.37,T,,M,0.00,N,0.00,K,A*38
$GPGGA,094614.000,4604.6073,N,01107.2179,E,1,7,1.47,218.0,M,47.7,M,,*56
$GPGSA,A,3,13,05,14,22,15,24,30,,,,,,1.71,1.47,0.88*04
$GPGSV,3,1,11,13,78,122,14,22,65,084,12,15,63,291,27,14,49,060,16*79
$GPGSV,3,2,11,24,33,275,32,05,27,212,20,30,26,077,16,17,24,108,*75
$GPGSV,3,3,11,23,21,316,,19,13,135,20,34,,,*77
$GPGLL,4604.6073,N,01107.2179,E,094614.000,A,A*59
$GPTXT,01,01,02,ANTSTATUS=OPEN*2B
$GPRMC,094615.000,A,4604.6073,N,01107.2179,E,0.00,122.37,100124,,,A*6C
$GPVTG,122.37,T,,M,0.00,N,0.00,K,A*38
$GPGGA,094615.000,4604.6073,N,01107.2179,E,1,7,1.47,218.0,M,47.7,M,,*57
$GPGSA,A,3,13,05,14,22,15,24,30,,,,,,1.71,1.47,0.88*04
$GPGSV,3,1,11,13,78,122,14,22,65,084,15,15,63,291,27,14,49,060,16*7E
$GPGSV,3,2,11,24,33,275,32,05,27,212,20,30,26,077,16,17,24,108,*75
$GPGSV,3,3,11,23,21,316,,19,13,135,20,34,,,*77
$GPGLL,4604.6073,N,01107.2179,E,094615.000,A,A*58
$GPTXT,01,01,02,ANTSTATUS=OPEN*2B
$GPRMC,094616.000,A,4604.6073,N,01107.2179,E,0.00,122.37,100124,,,A*6F
$GPVTG,122.37,T,,M,0.00,N,0.00,K,A*38
$GPGGA,094616.000,4604.6073,N,01107.2179,E,1,7,1.47,218.0,M,47.7,M,,*54
$GPGSA,A,3,13,05,14,22,15,24,30,,,,,,1.71,1.47,0.88*04
$GPGSV,3,1,11,13,78,122,11,22,65,084,11,15,63,291,27,14,49,060,16*7F
$GPGSV,3,2,11,24,33,275,32,05,27,212,20,30,26,077,16,17,24,108,*75
$GPGSV,3,3,11,23,21,316,,19,13,135,20,34,,,*77
$GPGLL,4604.6073,N,01107.2179,E,094616.000,A,A*5B
$GPTXT,01,01,02,ANTSTATUS=OPEN*2B
$GPRMC,094617.000,A,4604.6051,N,01107.2219,E,0.78,97.40,100124,,,A*5B
$GPVTG,97.40,T,,M,0.78,N,1.45,K,A*08
$GPGGA,094617.000,4604.6051,N,01107.2219,E,1,7,1.46,218.1,M,47.7,M,,*50
$GPGSA,A,3,13,05,14,22,15,24,30,,,,,,1.71,1.46,0.88*05
$GPGSV,3,1,11,13,78,122,11,22,65,084,12,15,63,291,27,14,49,060,16*7C
$GPGSV,3,2,11,24,33,275,32,05,27,212,20,30,26,077,16,17,24,108,*75
$GPGSV,3,3,11,23,21,316,,19,13,135,20,34,,,*77
$GPGLL,4604.6051,N,01107.2219,E,094617.000,A,A*5F
$GPTXT,01,01,02,ANTSTATUS=OPEN*2B
$0124,,,A*50
$GPVTG,92.85,T,,M,0.78,N,1.44,K,A*05
$GPGGA,094618.000,4604.6052,N,01107.2221,E,1,7,1.47,218.1,M,47.7,M,,*56
$GPGSA,A,3,13,05,14,22,15,24,30,,,,,,1.71,1.47,0.88*04
$GPGSV,3,1,11,13,78,122,14,22,65,084,14,15,63,291,27,14,49,060,17*7E
$GPGSV,3,2,11,24,33,275,32,05,27,212,20,30,26,077,16,17,24,108,*75
$GPGSV,3,3,11,23,21,316,,19,13,135,20,34,,,*77
$GPGLL,4604.6052,N,01107.2221,E,094618.000,A,A*58
$GPTXT,01,01,02,ANTSTATUS=OPEN*2B
$GPRMC,094619.000,A,4604.6054,N,01107.2225,E,0.00,90.15,1001,094619.000,4604.6054,N,01107.2225,E,1,7,1.47,218.2,M,47.7,M,,*56
$GPGSA,A,3,13,05,14,22,15,24,30,,,,,,1.71,1.47,0.88*04
$GPGSV,3,1,11,13,78,122,15,22,65,084,13,15,63,291,27,14,49,060,17*78
$GPGSV,3,2,11,24,33,275,32,05,27,212,20,30,26,077,16,17,24,108,*75
$GPGSV,3,3,11,23,21,316,,19,13,135,20,34,,,*77
$GPGLL,4604.6054,N,01107.2225,E,094619.000,A,A*5B
$GPTXT,01,01,02,ANTSTATUS=OPEN*2B
$GPRMC,094620.000,A,4604.6057,N,01107.2226,E,0.00,84.90,100124,,,A*55
$GPVTG,84.90,T,,M,0.00,N,0.00,K,A*08
$GPGGA,07,M,,*5D
$GPGSA,A,3,13,05,14,22,15,24,30,,,,,,1.71,1.47,0.88*04
$GPGSV,3,1,11,13,78,122,13,22,65,084,15,15,63,291,27,14,49,060,17*78
$GPGSV,3,2,11,24,33,275,33,05,27,212,20,30,26,077,16,17,24,108,*74
$GPGSV,3,3,11,23,21,316,,19,13,135,20,35,,,*76
$GPGLL,4604.6057,N,01107.2226,E,094620.000,A,A*51
$GPTXT,01,01,02,ANTSTATUS=OPEN*2B
$GPRMC,094621.000,A,4604.6059,N,01107.2226,E,0.00,81.27,100124,,,A*53
$GPVTG,81.27,T,,M,0.00,N,0.00,K,A*01
$GPGGA,094621.000,4604.6059,N,01107.2226,E,1,7,1.47,218.3,M,47.7,0.88*04
$GPGSV,3,1,11,13,78,122,13,22,65,084,13,15,63,291,27,14,49,060,17*7E
$GPGSV,3,2,11,24,33,275,33,05,27,212,19,30,25,078,15,17,24,108,*71
$GPGSV,3,3,11,23,21,316,,19,13,135,20,35,,,*76
$GPGLL,4604.6059,N,01107.2226,E,094621.000,A,A*5E
$GPTXT,01,01,02,ANTSTATUS=OPEN*2B
$GPRMC,094622.000,A,4604.6059,N,01107.2226,E,0.00,81.27,100124,,,A*50
$GPVTG,81.27,T,,M,0.00,N,0.00,K,A*01
$GPGGA,094622.000,4604.6059,N,01107.2226,E,1,7,1.47,218.3,M,47.7,M,,*51
$GPGSA,A,3,13,05,14,22,15,24,30,,,,,,1.71,1.47,0.,28,14,49,060,17*70
$GPGSV,3,2,11,24,33,275,33,05,27,212,19,30,25,078,15,17,24,108,*71
$GPGSV,3,3,11,23,21,316,,19,13,135,20,35,,,*76
$GPGLL,4604.6059,N,01107.2226,E,094622.000,A,A*5D
$GPTXT,01,01,02,ANTSTATUS=OPEN*2B
$GPRMC,094623.000,A,4604.6059,N,01107.2226,E,0.00,81.27,100124,,,A*51
$GPVTG,81.27,T,,M,0.00,N,0.00,K,A*01
$GPGGA,094623.000,4604.6059,N,01107.2226,E,1,7,1.47,218.3,M,47.7,M,,*50
$GPGSA,A,3,13,05,14,22,15,24,30,,,,,,1.71,1.47,0.88*04
$GPGSV,3,1,11,13,78,122,13,22,65,084,12,15,63,291,22,19,30,25,078,15,17,24,108,*71
$GPGSV,3,3,11,23,21,316,,19,13,135,20,35,,,*76
$GPGLL,4604.6059,N,01107.2226,E,094623.000,A,A*5C
$GPTXT,01,01,02,ANTSTATUS=OPEN*2B
$GPRMC,094624.000,A,4604.6059,N,01107.2226,E,0.00,81.27,100124,,,A*56
$GPVTG,81.27,T,,M,0.00,N,0.00,K,A*01
$GPGGA,094624.000,4604.6059,N,01107.2226,E,1,7,1.46,218.3,M,47.7,M,,*56
$GPGSA,A,3,13,05,14,22,15,24,30,,,,,,1.71,1.46,0.88*05
$GPGSV,3,1,11,13,78,122,12,22,65,084,12,15,63,291,28,14,49,060,18*7E
$GPGSV,3,2,11,24,33,275,33,05,27,212,,,19,13,135,20,35,,,*76
$GPGLL,4604.6059,N,01107.2226,E,094624.000,A,A*5B
$GPTXT,01,01,02,ANTSTATUS=OPEN*2B
$GPRMC,094625.000,A,4604.6059,N,01107.2226,E,0.00,81.27,100124,,,A*57
$GPVTG,81.27,T,,M,0.00,N,0.00,K,A*01
$GPGGA,094625.000,4604.6059,N,01107.2226,E,1,7,1.47,218.3,M,47.7,M,,*56
$GPGSA,A,3,13,05,14,22,15,24,30,,,,,,1.71,1.47,0.88*04
$GPGSV,3,1,11,13,78,122,12,22,65,084,13,15,63,291,28,14,49,060,18*7F
$GPGSV,3,2,11,24,33,275,33,05,27,212,19,30,25,078,15,17,24,108,*71
$GPGSV,3,3,11,23,21,316,,094625.000,A,A*5A
$GPTXT,01,01,02,ANTSTATUS=OPEN*2B
$GPRMC,094626.000,A,4604.6059,N,01107.2226,E,0.00,81.27,100124,,,A*54
$GPVTG,81.27,T,,M,0.00,N,0.00,K,A*01
$GPGGA,094626.000,4604.6059,N,01107.2226,E,1,7,1.47,218.3,M,47.7,M,,*55
$GPGSA,A,3,13,05,14,22,15,24,30,,,,,,1.71,1.47,0.88*04
$GPGSV,3,1,11,13,78,122,11,22,65,084,12,15,63,291,28,14,49,060,18*7D
$GPGSV,3,2,11,24,33,275,33,05,27,212,19,30,25,078,14,17,24,108,*70
$GPGSV,3,3,11,23,21,316,,19,13,135,20,36,,,*75
$GPGLL,4604.6059,N,01107.2226,E,09
$GPRMC,094627.000,A,4604.6059,N,01107.2226,E,0.00,81.27,100124,,,A*55
$GPVTG,81.27,T,,M,0.00,N,0.00,K,A*01
$GPGGA,094627.000,4604.6059,N,01107.2226,E,1,7,1.47,218.3,M,47.7,M,,*54
$GPGSA,A,3,13,05,14,22,15,24,30,,,,,,1.71,1.47,0.88*04
$GPGSV,3,1,11,13,78,122,14,22,65,084,13,15,63,291,28,14,49,060,18*79
$GPGSV,3,2,11,24,33,275,33,05,27,212,19,30,25,078,14,17,24,108,*70
$GPGSV,3,3,11,23,21,316,,19,13,135,20,36,,,*75
$GPGLL,4604.6059,N,01107.2226,E,094627.000,A,A*58
$GPTXT,01,01,02,ANTSTATUS=OPEN*2B
$0124,,,A*5A
$GPVTG,81.27,T,,M,0.00,N,0.00,K,A*01
$GPGGA,094628.000,4604.6059,N,01107.2226,E,1,7,1.47,218.3,M,47.7,M,,*5B
$GPGSA,A,3,13,05,14,22,15,24,30,,,,,,1.71,1.47,0.88*04
$GPGSV,3,1,11,13,78,122,11,22,65,084,13,15,63,291,29,14,49,060,18*7D
$GPGSV,3,2,11,24,33,275,33,05,27,212,19,30,25,078,15,17,24,108,*71
$GPGSV,3,3,11,23,21,316,,19,13,135,20,36,,,27*70
$GPGLL,4604.6059,N,01107.2226,E,094628.000,A,A*57
$GPTXT,01,01,02,ANTSTATUS=OPEN*2B
$GPRMC,094629.000,A,4604.6059,N,01107.2226,E,0.00,81.27,10GA,094629.000,4604.6059,N,01107.2226,E,1,7,1.46,218.3,M,47.7,M,,*5B
$GPGSA,A,3,13,05,14,22,15,24,30,,,,,,1.71,1.46,0.88*05
$GPGSV,3,1,11,13,78,122,13,22,65,084,12,15,63,291,29,14,49,060,18*7E
$GPGSV,3,2,11,24,33,275,33,05,27,212,18,30,25,078,15,17,24,108,*70
$GPGSV,3,3,11,23,21,316,,19,13,135,20,36,,,27*70
$GPGLL,4604.6059,N,01107.2226,E,094629.000,A,A*56
$GPTXT,01,01,02,ANTSTATUS=OPEN*2B
$GPRMC,094630.000,A,4604.6059,N,01107.2226,E,0.00,81.27,100124,,,A*53
$GPVTG,81.27,T,,M,0.00,N,0.00,K,A*01
$GPG,47.7,M,,*55
$GPGSA,A,3,05,14,22,15,24,30,,,,,,,1.76,1.50,0.92*0C
$GPGSV,3,1,11,13,78,122,,22,65,084,16,15,63,291,29,14,49,060,18*78
$GPGSV,3,2,11,24,33,275,33,05,27,212,18,30,25,078,14,17,24,108,*71
$GPGSV,3,3,11,23,21,316,,19,13,135,20,36,,,27*70
$GPGLL,4604.6059,N,01107.2226,E,094630.000,A,A*5E
$GPTXT,01,01,02,ANTSTATUS=OPEN*2B
$GPRMC,094631.000,A,4604.6059,N,01107.2226,E,0.00,81.27,100124,,,A*52
$GPVTG,81.27,T,,M,0.00,N,0.00,K,A*01
$GPGGA,094631.000,4604.6059,N,01107.2226,E,1,6,1.50,218.3,M,47.0.92*0C
$GPGSV,3,1,11,13,78,122,,22,65,084,15,15,63,291,29,14,49,060,18*7B
$GPGSV,3,2,11,24,33,275,33,05,26,212,18,30,25,078,14,17,24,108,*70
$GPGSV,3,3,11,23,21,316,,19,13,135,20,36,,,27*70
$GPGLL,4604.6059,N,01107.2226,E,094631.000,A,A*5F
$GPTXT,01,01,02,ANTSTATUS=OPEN*2B
$GPRMC,094632.000,A,4604.6059,N,01107.2226,E,0.00,81.27,100124,,,A*51
$GPVTG,81.27,T,,M,0.00,N,0.00,K,A*01
$GPGGA,094632.000,4604.6059,N,01107.2226,E,1,6,1.63,218.3,M,47.7,M,,*57
$GPGSA,A,3,05,14,22,15,24,30,,,,,,,2.84,1.63,2.3314,49,060,18*7D
$GPGSV,3,2,11,24,33,275,33,05,26,212,18,30,25,078,15,17,24,108,*71
$GPGSV,3,3,11,23,21,316,16,19,13,135,20,36,,,29*79
$GPGLL,4604.6059,N,01107.2226,E,094632.000,A,A*5C
$GPTXT,01,01,02,ANTSTATUS=OPEN*2B
$GPRMC,094633.000,A,4604.6059,N,01107.2226,E,0.00,81.27,100124,,,A*50
$GPVTG,81.27,T,,M,0.00,N,0.00,K,A*01
$GPGGA,094633.000,4604.6059,N,01107.2226,E,1,6,1.63,218.3,M,47.7,M,,*56
$GPGSA,A,3,05,14,22,15,24,30,,,,,,,2.84,1.63,2.33*0B
$GPGSV,3,1,11,13,78,122,,22,65,084,14,15,63,291,29,14,30,25,078,14,17,24,108,*70
$GPGSV,3,3,11,23,21,316,15,19,13,135,20,36,,,27*74
$GPGLL,4604.6059,N,01107.2226,E,094633.000,A,A*5D
$GPTXT,01,01,02,ANTSTATUS=OPEN*2B
$GPRMC,094634.000,A,4604.6059,N,01107.2226,E,0.00,81.27,100124,,,A*57
$GPVTG,81.27,T,,M,0.00,N,0.00,K,A*01
$GPGGA,094634.000,4604.6059,N,01107.2226,E,1,6,1.63,218.3,M,47.7,M,,*51
$GPGSA,A,3,05,14,22,15,24,30,,,,,,,2.84,1.63,2.33*0B
$GPGSV,3,1,11,13,78,122,,22,65,084,15,15,63,291,29,14,49,060,18*7B
$GPGSV,3,2,11,24,33,275,33,05,26,212,18,319,13,135,20,36,,,26*75
$GPGLL,4604.6059,N,01107.2226,E,094634.000,A,A*5A
$GPTXT,01,01,02,ANTSTATUS=OPEN*2B
$GPRMC,094635.000,A,4604.6059,N,01107.2226,E,0.00,81.27,100124,,,A*56
$GPVTG,81.27,T,,M,0.00,N,0.00,K,A*01
$GPGGA,094635.000,4604.6059,N,01107.2226,E,1,6,1.63,218.3,M,47.7,M,,*50
$GPGSA,A,3,05,14,22,15,24,30,,,,,,,2.84,1.63,2.33*0B
$GPGSV,3,1,11,13,78,122,,22,65,084,14,15,63,291,29,14,49,060,18*7A
$GPGSV,3,2,11,24,33,275,33,05,26,212,18,30,25,078,15,17,24,108,*71
$GPGSV,3,3,11,23,21,316,15,19094635.000,A,A*5B
$GPTXT,01,01,02,ANTSTATUS=OPEN*2B
$GPRMC,094636.000,A,4604.6059,N,01107.2226,E,0.00,81.27,100124,,,A*55
$GPVTG,81.27,T,,M,0.00,N,0.00,K,A*01
$GPGGA,094636.000,4604.6059,N,01107.2226,E,1,6,1.50,218.3,M,47.7,M,,*53
$GPGSA,A,3,05,14,22,15,24,30,,,,,,,1.76,1.50,0.92*0C
$GPGSV,3,1,11,13,78,122,,22,65,084,14,15,63,291,29,14,49,060,18*7A
$GPGSV,3,2,11,24,33,275,33,05,26,212,18,30,25,078,14,17,24,108,*70
$GPGSV,3,3,11,23,21,316,16,19,13,135,19,36,,,26*7C
$GPGLL,4604.6059,N,01107.2226,E,09
$GPRMC,094637.000,A,4604.6059,N,01107.2226,E,0.00,81.27,100124,,,A*54
$GPVTG,81.27,T,,M,0.00,N,0.00,K,A*01
$GPGGA,094637.000,4604.6059,N,01107.2226,E,1,6,1.50,218.3,M,47.7,M,,*52
$GPGSA,A,3,05,14,22,15,24,30,,,,,,,1.76,1.50,0.92*0C
$GPGSV,3,1,11,13,78,122,,22,65,084,16,15,63,291,29,14,49,060,18*78
$GPGSV,3,2,11,24,33,275,33,05,26,212,19,30,25,078,15,17,24,108,*70
$GPGSV,3,3,11,23,21,316,16,19,13,135,19,36,,,26*7C
$GPGLL,4604.6059,N,01107.2226,E,094637.000,A,A*59
$GPTXT,01,01,02,ANTSTATUS=OPEN*2B
$0124,,,A*5B
$GPVTG,81.27,T,,M,0.00,N,0.00,K,A*01
$GPGGA,094638.000,4604.6059,N,01107.2226,E,1,6,1.50,218.3,M,47.7,M,,*5D
$GPGSA,A,3,05,14,22,15,24,30,,,,,,,1.76,1.50,0.92*0C
$GPGSV,3,1,11,13,78,122,,22,65,084,13,15,63,291,29,14,49,060,18*7D
$GPGSV,3,2,11,24,33,275,33,05,26,212,19,30,25,078,13,17,24,108,*76
$GPGSV,3,3,11,23,21,316,16,19,13,135,19,36,,,25*7F
$GPGLL,4604.6059,N,01107.2226,E,094638.000,A,A*56
$GPTXT,01,01,02,ANTSTATUS=OPEN*2B
$GPRMC,094639.000,A,4604.6059,N,01107.2226,E,0.00,81.27,1001,094639.000,4604.6059,N,01107.2226,E,1,6,1.50,218.3,M,47.7,M,,*5C
$GPGSA,A,3,05,14,22,15,24,30,,,,,,,1.76,1.50,0.92*0C
$GPGSV,3,1,11,13,78,122,,22,65,084,13,15,63,291,29,14,49,060,18*7D
$GPGSV,3,2,11,24,33,275,33,05,26,212,19,30,25,078,15,17,24,108,*70
$GPGSV,3,3,11,23,21,316,16,19,13,135,19,38,,,*76
$GPGLL,4604.6059,N,01107.2226,E,094639.000,A,A*57
$GPTXT,01,01,02,ANTSTATUS=OPEN*2B
$GPRMC,094640.000,A,4604.6059,N,01107.2226,E,0.00,81.27,100124,,,A*54
$GPVTG,81.27,T,,M,0.00,N,0.00,K,A*01
$GPGGA,094M,,*52
$GPGSA,A,3,05,14,22,15,24,30,,,,,,,1.76,1.50,0.92*0C
$GPGSV,3,1,11,13,78,122,,22,65,084,13,15,63,291,29,14,48,060,18*7C
$GPGSV,3,2,11,24,33,275,33,05,26,212,20,30,25,078,13,17,24,108,*7C
$GPGSV,3,3,11,23,21,316,16,19,13,135,19,38,,,*76
$GPGLL,4604.6059,N,01107.2226,E,094640.000,A,A*59
$GPTXT,01,01,02,ANTSTATUS=OPEN*2B
$GPRMC,094641.000,A,4604.6059,N,01107.2226,E,0.00,81.27,100124,,,A*55
$GPVTG,81.27,T,,M,0.00,N,0.00,K,A*01
$GPGGA,094641.000,4604.6059,N,01107.2226,E,1,6,1.50,218.3,M,47.7,M,,*C
$GPGSV,3,1,11,13,78,122,,22,65,084,13,15,63,291,29,14,48,060,18*7C
$GPGSV,3,2,11,24,33,275,33,05,26,212,20,30,25,078,15,17,24,108,*7A
$GPGSV,3,3,11,23,21,316,16,19,13,135,19,38,,,*76
$GPGLL,4604.6059,N,01107.2226,E,094641.000,A,A*58
$GPTXT,01,01,02,ANTSTATUS=OPEN*2B
$GPRMC,094642.000,A,4604.6059,N,01107.2226,E,0.00,81.27,100124,,,A*56
$GPVTG,81.27,T,,M,0.00,N,0.00,K,A*01
$GPGGA,094642.000,4604.6059,N,01107.2226,E,1,6,1.50,218.3,M,47.7,M,,*50
$GPGSA,A,3,05,14,22,15,24,30,,,,,,,1.76,1.50,0.92*0C
$60,18*7C
$GPGSV,3,2,11,24,33,275,33,05,26,212,20,30,25,078,14,17,24,108,*7B
$GPGSV,3,3,11,23,21,316,15,19,13,135,19,38,,,*75
$GPGLL,4604.6059,N,01107.2226,E,094642.000,A,A*5B
$GPTXT,01,01,02,ANTSTATUS=OPEN*2B
$GPRMC,094643.000,A,4604.6059,N,01107.2226,E,0.00,81.27,100124,,,A*57
$GPVTG,81.27,T,,M,0.00,N,0.00,K,A*01
$GPGGA,094643.000,4604.6059,N,01107.2226,E,1,6,1.50,218.3,M,47.7,M,,*51
$GPGSA,A,3,05,14,22,15,24,30,,,,,,,1.76,1.50,0.92*0C
$GPGSV,3,1,11,13,78,122,,22,65,084,14,15,63,291,30,14,48,060,18,15,17,24,108,*7B
$GPGSV,3,3,11,23,21,316,15,19,13,135,19,38,,,*75
$GPGLL,4604.6059,N,01107.2226,E,094643.000,A,A*5A
$GPTXT,01,01,02,ANTSTATUS=OPEN*2B
$GPRMC,094644.000,A,4604.6059,N,01107.2226,E,0.00,81.27,100124,,,A*50
$GPVTG,81.27,T,,M,0.00,N,0.00,K,A*01
$GPGGA,094644.000,4604.6059,N,01107.2226,E,1,6,1.50,218.3,M,47.7,M,,*56
$GPGSA,A,3,05,14,22,15,24,30,,,,,,,1.76,1.50,0.92*0C
$GPGSV,3,1,11,13,78,122,,22,65,084,14,15,63,291,30,14,48,060,18*73
$GPGSV,3,2,11,24,33,275,33,05,26,212,22,30,25,078,159,38,,,*75
$GPGLL,4604.6059,N,01107.2226,E,094644.000,A,A*5D
$GPTXT,01,01,02,ANTSTATUS=OPEN*2B
$GPRMC,094645.000,A,4604.6059,N,01107.2226,E,0.00,81.27,100124,,,A*51
$GPVTG,81.27,T,,M,0.00,N,0.00,K,A*01
$GPGGA,094645.000,4604.6059,N,01107.2226,E,1,6,1.50,218.3,M,47.7,M,,*57
$GPGSA,A,3,05,14,22,15,24,30,,,,,,,1.76,1.50,0.92*0C
$GPGSV,3,1,11,13,78,122,,22,65,084,12,15,63,291,30,14,48,060,18*75
$GPGSV,3,2,11,24,33,275,33,05,26,212,22,30,25,078,16,17,24,108,*7B
$GPGSV,3,3,11,23,21,316,15,19,13,135,19,38*5C
$GPTXT,01,01,02,ANTSTATUS=OPEN*2B
$GPRMC,094646.000,A,4604.6059,N,01107.2226,E,0.00,81.27,100124,,,A*52
$GPVTG,81.27,T,,M,0.00,N,0.00,K,A*01
$GPGGA,094646.000,4604.6059,N,01107.2226,E,1,6,1.50,218.3,M,47.7,M,,*54
$GPGSA,A,3,05,14,22,15,24,30,,,,,,,1.76,1.50,0.92*0C
$GPGSV,3,1,11,13,78,122,,22,65,084,13,15,63,291,30,14,48,060,17*7B
$GPGSV,3,2,11,24,33,275,33,05,26,212,22,30,25,078,15,17,24,108,*78
$GPGSV,3,3,11,23,21,316,15,19,13,135,19,41,,,*7B
$GPGLL,4604.6059,N,01107.2226,E,094646.000,A,A*5F
$GPRMC,094647.000,A,4604.6059,N,01107.2226,E,0.00,81.27,100124,,,A*53
$GPVTG,81.27,T,,M,0.00,N,0.00,K,A*01
$GPGGA,094647.000,4604.6059,N,01107.2226,E,1,6,1.50,218.3,M,47.7,M,,*55
$GPGSA,A,3,05,14,22,15,24,30,,,,,,,1.76,1.50,0.92*0C
$GPGSV,3,1,11,13,78,122,,22,65,084,11,15,63,291,30,14,48,060,17*79
$GPGSV,3,2,11,24,33,275,33,05,26,212,22,30,25,078,14,17,24,108,*79
$GPGSV,3,3,11,23,21,316,15,19,13,135,19,41,,,*7B
$GPGLL,4604.6059,N,01107.2226,E,094647.000,A,A*5E
$GPTXT,01,01,02,ANTSTATUS=OPEN*2B
$GP24,,,A*5C
$GPVTG,81.27,T,,M,0.00,N,0.00,K,A*01
$GPGGA,094648.000,4604.6059,N,01107.2226,E,1,6,1.50,218.3,M,47.7,M,,*5A
$GPGSA,A,3,05,14,22,15,24,30,,,,,,,1.76,1.50,0.92*0C
$GPGSV,3,1,11,13,78,122,,22,65,084,14,15,63,291,30,14,48,060,17*7C
$GPGSV,3,2,11,24,33,275,33,05,26,212,22,30,25,078,13,17,24,108,*7E
$GPGSV,3,3,11,23,21,316,15,19,13,135,19,41,,,*7B
$GPGLL,4604.6059,N,01107.2226,E,094648.000,A,A*51
$GPTXT,01,01,02,ANTSTATUS=OPEN*2B
$GPRMC,094649.000,A,4604.6059,N,01107.2226,E,0.00,81.27,100124,,649.000,4604.6059,N,01107.2226,E,1,6,1.50,218.3,M,47.7,M,,*5B
$GPGSA,A,3,05,14,22,15,24,30,,,,,,,1.76,1.50,0.92*0C
$GPGSV,3,1,11,13,78,122,,22,65,084,12,15,63,291,30,14,48,060,17*7A
$GPGSV,3,2,11,24,33,275,33,05,26,212,21,30,25,078,14,17,24,108,*7A
$GPGSV,3,3,11,23,21,315,15,19,13,135,19,41,,,*78
$GPGLL,4604.6059,N,01107.2226,E,094649.000,A,A*50
$GPTXT,01,01,02,ANTSTATUS=OPEN*2B
$GPRMC,094650.000,A,4604.6059,N,01107.2226,E,0.00,81.27,100124,,,A*55
$GPVTG,81.27,T,,M,0.00,N,0.00,K,A*01
$GPGGA,094650.53
$GPGSA,A,3,05,14,22,15,24,30,,,,,,,1.76,1.50,0.92*0C
$GPGSV,3,1,11,13,78,122,,22,65,084,14,15,63,291,30,14,48,060,17*7C
$GPGSV,3,2,11,24,33,275,34,05,26,212,21,30,25,078,15,17,24,108,*7C
$GPGSV,3,3,11,23,21,315,15,19,13,135,19,41,,,*78
$GPGLL,4604.6059,N,01107.2226,E,094650.000,A,A*58
$GPTXT,01,01,02,ANTSTATUS=OPEN*2B
$GPRMC,094651.000,A,4604.6059,N,01107.2226,E,0.00,81.27,100124,,,A*54
$GPVTG,81.27,T,,M,0.00,N,0.00,K,A*01
$GPGGA,094651.000,4604.6059,N,01107.2226,E,1,6,1.50,218.3,M,47.7,M,,*52
GSV,3,1,11,13,78,122,,22,65,084,15,15,63,291,30,14,48,060,17*7D
$GPGSV,3,2,11,24,33,275,34,05,26,212,21,30,25,078,14,17,24,108,*7D
$GPGSV,3,3,11,23,21,315,15,19,13,135,19,41,,,*78
$GPGLL,4604.6059,N,01107.2226,E,094651.000,A,A*59
$GPTXT,01,01,02,ANTSTATUS=OPEN*2B
$GPRMC,094652.000,A,4604.6059,N,01107.2226,E,0.00,81.27,100124,,,A*57
$GPVTG,81.27,T,,M,0.00,N,0.00,K,A*01
$GPGGA,094652.000,4604.6059,N,01107.2226,E,1,6,1.50,218.3,M,47.7,M,,*51
$GPGSA,A,3,05,14,22,15,24,30,,,,,,,1.76,1.50,0.92*0C
$GPGSV,16*7A
$GPGSV,3,2,11,24,33,275,34,05,26,212,20,30,25,078,14,17,24,108,*7C
$GPGSV,3,3,11,23,21,315,15,19,13,135,19,43,,,*7A
$GPGLL,4604.6059,N,01107.2226,E,094652.000,A,A*5A
$GPTXT,01,01,02,ANTSTATUS=OPEN*2B
$GPRMC,094653.000,A,4604.6059,N,01107.2226,E,0.00,81.27,100124,,,A*56
$GPVTG,81.27,T,,M,0.00,N,0.00,K,A*01
$GPGGA,094653.000,4604.6059,N,01107.2226,E,1,6,1.50,218.3,M,47.7,M,,*50
$GPGSA,A,3,05,14,22,15,24,30,,,,,,,1.76,1.50,0.92*0C
$GPGSV,3,1,11,13,78,122,,22,65,084,17,15,63,291,29,14,48,060,15*74,17,24,108,*7C
$GPGSV,3,3,11,23,21,315,15,19,13,135,19,43,,,*7A
$GPGLL,4604.6059,N,01107.2226,E,094653.000,A,A*5B
$GPTXT,01,01,02,ANTSTATUS=OPEN*2B
$GPRMC,094654.000,A,4604.6059,N,01107.2226,E,0.00,81.27,100124,,,A*51
$GPVTG,81.27,T,,M,0.00,N,0.00,K,A*01
$GPGGA,094654.000,4604.6059,N,01107.2226,E,1,6,1.50,218.3,M,47.7,M,,*57
$GPGSA,A,3,05,14,22,15,24,30,,,,,,,1.76,1.50,0.92*0C
$GPGSV,3,1,11,13,78,122,,22,65,084,16,15,63,291,29,14,48,060,15*74
$GPGSV,3,2,11,24,33,275,34,05,26,212,20,30,25,078,12,173,,,*7A
$GPGLL,4604.6059,N,01107.2226,E,094654.000,A,A*5C
$GPTXT,01,01,02,ANTSTATUS=OPEN*2B
$GPRMC,094655.000,A,4604.6059,N,01107.2226,E,0.00,81.27,100124,,,A*50
$GPVTG,81.27,T,,M,0.00,N,0.00,K,A*01
$GPGGA,094655.000,4604.6059,N,01107.2226,E,1,6,1.50,218.3,M,47.7,M,,*56
$GPGSA,A,3,05,14,22,15,24,30,,,,,,,1.76,1.50,0.92*0C
$GPGSV,3,1,11,13,78,122,,22,65,084,15,15,63,291,29,14,48,060,16*74
$GPGSV,3,2,11,24,33,275,34,05,26,212,20,30,25,078,14,17,24,108,*7C
$GPGSV,3,3,11,23,21,315,15,19,13,135,19,43,,,
$GPTXT,01,01,02,ANTSTATUS=OPEN*2B
$GPRMC,094656.000,A,4604.6059,N,01107.2226,E,0.00,81.27,100124,,,A*53
$GPVTG,81.27,T,,M,0.00,N,0.00,K,A*01
$GPGGA,094656.000,4604.6059,N,01107.2226,E,1,6,1.50,218.3,M,47.7,M,,*55
$GPGSA,A,3,05,14,22,15,24,30,,,,,,,1.76,1.50,0.92*0C
$GPGSV,3,1,11,13,78,122,,22,65,084,15,15,63,291,29,14,48,060,14*76
$GPGSV,3,2,11,24,33,275,34,05,26,212,20,30,25,078,15,17,24,108,*7D
$GPGSV,3,3,11,23,21,315,15,19,13,135,19,43,,,*7A
$GPGLL,4604.6059,N,01107.2226,E,094656.000,A,A*5E
$GP
$GPRMC,094657.000,A,4604.6059,N,01107.2226,E,0.00,81.27,100124,,,A*52
$GPVTG,81.27,T,,M,0.00,N,0.00,K,A*01
$GPGGA,094657.000,4604.6059,N,01107.2226,E,1,6,1.50,218.3,M,47.7,M,,*54
$GPGSA,A,3,05,14,22,15,24,30,,,,,,,1.76,1.50,0.92*0C
$GPGSV,3,1,11,13,78,122,,22,65,084,15,15,63,291,29,14,48,060,15*77
$GPGSV,3,2,11,24,33,275,34,05,26,212,20,30,25,078,12,17,24,108,*7A
$GPGSV,3,3,11,23,21,315,15,19,13,135,19,43,,,*7A
$GPGLL,4604.6059,N,01107.2226,E,094657.000,A,A*5F
$GPTXT,01,01,02,ANTSTATUS=OPEN*2B
$GP24,,,A*5D
$GPVTG,81.27,T,,M,0.00,N,0.00,K,A*01
$GPGGA,094658.000,4604.6059,N,01107.2226,E,1,7,1.46,218.3,M,47.7,M,,*5D
$GPGSA,A,3,13,05,14,22,15,24,30,,,,,,1.71,1.46,0.88*05
$GPGSV,3,1,11,13,78,122,16,22,65,084,14,15,63,291,29,14,48,060,14*70
$GPGSV,3,2,11,24,33,275,34,05,26,212,20,30,25,078,11,17,24,108,*79
$GPGSV,3,3,11,23,21,315,15,19,13,135,19,45,,,*7C
$GPGLL,4604.6059,N,01107.2226,E,094658.000,A,A*50
$GPTXT,01,01,02,ANTSTATUS=OPEN*2B
$GPRMC,094659.000,A,4604.6059,N,01107.2226,E,0.00,81.27,1001,094659.000,4604.6059,N,01107.2226,E,1,7,1.46,218.3,M,47.7,M,,*5C
$GPGSA,A,3,13,05,14,22,15,24,30,,,,,,1.71,1.46,0.88*05
$GPGSV,3,1,11,13,78,122,16,22,65,084,14,15,63,291,29,14,48,060,15*71
$GPGSV,3,2,11,24,33,275,34,05,26,212,19,30,25,078,12,17,24,108,*70
$GPGSV,3,3,11,23,21,315,15,19,13,135,19,45,,,*7C
$GPGLL,4604.6059,N,01107.2226,E,094659.000,A,A*51
$GPTXT,01,01,02,ANTSTATUS=OPEN*2B
$GPRMC,094700.000,A,4604.6059,N,01107.2226,E,0.00,81.27,100124,,,A*51
$GPVTG,81.27,T,,M,0.00,N,0.00,K,A*01
$GPGGA7.7,M,,*56
$GPGSA,A,3,13,05,14,22,15,24,30,,,,,,2.38,1.50,1.85*00
$GPGSV,3,1,11,13,78,122,15,22,65,084,14,15,63,291,29,14,48,060,13*74
$GPGSV,3,2,11,24,33,275,34,05,26,212,19,30,25,078,14,17,24,108,*76
$GPGSV,3,3,11,23,21,315,15,19,13,135,19,45,,,*7C
$GPGLL,4604.6059,N,01107.2226,E,094700.000,A,A*5C
$GPTXT,01,01,02,ANTSTATUS=OPEN*2B
$GPRMC,094701.000,A,4604.6059,N,01107.2226,E,0.00,81.27,100124,,,A*50
$GPVTG,81.27,T,,M,0.00,N,0.00,K,A*01
$GPGGA,094701.000,4604.6059,N,01107.2226,E,1,7,1.50,218.3,M,4.50,1.85*00
$GPGSV,3,1,11,13,78,122,15,22,65,084,15,15,63,291,29,14,48,060,13*75
$GPGSV,3,2,11,24,33,275,34,05,26,212,18,30,25,078,12,17,24,108,*71
$GPGSV,3,3,11,23,21,315,14,19,13,135,19,45,,,*7D
$GPGLL,4604.6059,N,01107.2226,E,094701.000,A,A*5D
$GPTXT,01,01,02,ANTSTATUS=OPEN*2B
$GPRMC,094702.000,A,4604.6059,N,01107.2226,E,0.00,81.27,100124,,,A*53
$GPVTG,81.27,T,,M,0.00,N,0.00,K,A*01
$GPGGA,094702.000,4604.6059,N,01107.2226,E,1,7,1.50,218.3,M,47.7,M,,*54
$GPGSA,A,3,13,05,14,22,15,24,30,,,,,,2.38,163,291,29,14,48,060,12*74
$GPGSV,3,2,11,24,33,275,34,05,26,212,18,30,25,078,14,17,24,108,*77
$GPGSV,3,3,11,23,21,315,14,19,13,135,19,45,,,*7D
$GPGLL,4604.6059,N,01107.2226,E,094702.000,A,A*5E
$GPTXT,01,01,02,ANTSTATUS=OPEN*2B
$GPRMC,094703.000,A,4604.6059,N,01107.2226,E,0.00,81.27,100124,,,A*52
$GPVTG,81.27,T,,M,0.00,N,0.00,K,A*01
$GPGGA,094703.000,4604.6059,N,01107.2226,E,1,7,1.46,218.3,M,47.7,M,,*52
$GPGSA,A,3,13,05,14,22,15,24,30,,,,,,1.71,1.46,0.88*05
$GPGSV,3,1,11,13,78,122,15,22,65,084,15,15,05,26,212,17,30,25,078,14,17,24,108,*78
$GPGSV,3,3,11,23,21,315,14,19,13,135,19,45,,,*7D
$GPGLL,4604.6059,N,01107.2226,E,094703.000,A,A*5F
$GPTXT,01,01,02,ANTSTATUS=OPEN*2B
$GPRMC,094704.000,A,4604.6059,N,01107.2226,E,0.00,81.27,100124,,,A*55
$GPVTG,81.27,T,,M,0.00,N,0.00,K,A*01
$GPGGA,094704.000,4604.6059,N,01107.2226,E,1,6,1.55,218.3,M,47.7,M,,*56
$GPGSA,A,3,13,05,14,22,15,24,,,,,,,1.81,1.55,0.94*06
$GPGSV,3,1,11,13,78,122,14,22,65,084,15,15,63,291,28,14,48,060,14*72
$GPGSV,3,2,11,24,33,275,34,0521,315,14,19,13,135,19,45,,,*7D
$GPGLL,4604.6059,N,01107.2226,E,094704.000,A,A*58
$GPTXT,01,01,02,ANTSTATUS=OPEN*2B
$GPRMC,094705.000,A,4604.6059,N,01107.2226,E,0.00,81.27,100124,,,A*54
$GPVTG,81.27,T,,M,0.00,N,0.00,K,A*01
$GPGGA,094705.000,4604.6059,N,01107.2226,E,1,6,1.54,218.3,M,47.7,M,,*56
$GPGSA,A,3,13,05,14,22,15,24,,,,,,,1.81,1.54,0.94*07
$GPGSV,3,1,11,13,78,122,14,22,65,084,15,15,63,291,28,14,48,060,12*74
$GPGSV,3,2,11,24,33,275,34,05,26,212,16,30,25,078,,17,24,108,*7C
$GPGSV,3,3,11,23,21,32226,E,094705.000,A,A*59
$GPTXT,01,01,02,ANTSTATUS=OPEN*2B
$GPRMC,094706.000,A,4604.6059,N,01107.2226,E,0.00,81.27,100124,,,A*57
$GPVTG,81.27,T,,M,0.00,N,0.00,K,A*01
$GPGGA,094706.000,4604.6059,N,01107.2226,E,1,5,1.59,218.3,M,47.7,M,,*5B
$GPGSA,A,3,05,14,22,15,24,,,,,,,,1.86,1.59,0.96*0D
$GPGSV,3,1,11,13,78,122,,22,65,084,15,15,63,291,28,14,48,060,14*77
$GPGSV,3,2,11,24,33,275,34,05,26,212,15,30,25,078,,17,24,108,*7F
$GPGSV,3,3,11,23,21,315,14,19,13,135,19,46,,,*7E
$GPGLL,4604.6059,N,01107.2226,E,0
$GPRMC,094707.000,A,4604.6059,N,01107.2226,E,0.00,81.27,100124,,,A*56
$GPVTG,81.27,T,,M,0.00,N,0.00,K,A*01
$GPGGA,094707.000,4604.6059,N,01107.2226,E,1,5,1.59,218.3,M,47.7,M,,*5A
$GPGSA,A,3,05,14,22,15,24,,,,,,,,1.86,1.59,0.96*0D
$GPGSV,3,1,11,13,78,122,,22,65,084,15,15,63,291,28,14,48,060,14*77
$GPGSV,3,2,11,24,33,275,34,05,26,212,12,30,25,078,,17,24,108,*78
$GPGSV,3,3,11,23,21,315,13,19,13,135,19,46,,,*79
$GPGLL,4604.6059,N,01107.2226,E,094707.000,A,A*5B
$GPTXT,01,01,02,ANTSTATUS=OPEN*2B
$GPRMC,,A*59
$GPVTG,81.27,T,,M,0.00,N,0.00,K,A*01
$GPGGA,094708.000,4604.6059,N,01107.2226,E,1,5,1.59,218.3,M,47.7,M,,*55
$GPGSA,A,3,05,14,22,15,24,,,,,,,,1.86,1.59,0.96*0D
$GPGSV,3,1,11,13,78,122,,22,65,084,15,15,63,291,28,14,48,060,14*77
$GPGSV,3,2,11,24,33,275,33,05,26,212,12,30,25,078,,17,24,108,*7F
$GPGSV,3,3,11,23,21,315,13,19,13,135,19,46,,,*79
$GPGLL,4604.6059,N,01107.2226,E,094708.000,A,A*54
$GPTXT,01,01,02,ANTSTATUS=OPEN*2B
$GPRMC,094709.000,A,4604.6059,N,01107.2226,E,0.00,81.27,100124,,,A*58
$04.6059,N,01107.2226,E,1,5,1.59,218.3,M,47.7,M,,*54
$GPGSA,A,3,05,14,22,15,24,,,,,,,,1.86,1.59,0.96*0D
$GPGSV,3,1,11,13,78,122,,22,65,084,15,15,63,291,28,14,48,060,14*77
$GPGSV,3,2,11,24,33,275,32,05,26,212,12,30,25,078,,17,24,108,*7E
$GPGSV,3,3,11,23,21,315,14,19,13,135,19,46,,,*7E
$GPGLL,4604.6059,N,01107.2226,E,094709.000,A,A*55
$GPTXT,01,01,02,ANTSTATUS=OPEN*2B
$GPRMC,094710.000,A,4604.6059,N,01107.2226,E,0.00,81.27,100124,,,A*50
$GPVTG,81.27,T,,M,0.00,N,0.00,K,A*01
$GPGGA,094710.000,4604.6059,,05,14,22,15,24,,,,,,,,1.86,1.59,0.96*0D
$GPGSV,3,1,11,13,78,122,,22,65,084,15,15,63,291,28,14,48,060,14*77
$GPGSV,3,2,11,24,33,275,33,05,26,212,12,30,25,078,,17,24,108,*7F
$GPGSV,3,3,11,23,21,315,14,19,13,135,19,46,,,*7E
$GPGLL,4604.6059,N,01107.2226,E,094710.000,A,A*5D
$GPTXT,01,01,02,ANTSTATUS=OPEN*2B
$GPRMC,094711.000,A,4604.6059,N,01107.2226,E,0.00,81.27,100124,,,A*51
$GPVTG,81.27,T,,M,0.00,N,0.00,K,A*01
$GPGGA,094711.000,4604.6059,N,01107.2226,E,1,5,1.59,218.3,M,47.7,M,,*5D
$GPGSA,A,3,05,14,22,,22,65,084,15,15,63,291,29,14,48,060,13*71
$GPGSV,3,2,11,24,33,275,33,05,26,212,14,30,25,078,,17,24,108,*79
$GPGSV,3,3,11,23,21,315,14,19,13,135,19,46,,,*7E
$GPGLL,4604.6059,N,01107.2226,E,094711.000,A,A*5C
$GPTXT,01,01,02,ANTSTATUS=OPEN*2B
$GPRMC,094712.000,A,4604.6146,N,01107.2168,E,0.80,59.22,100124,,,A*5C
$GPVTG,59.22,T,,M,0.80,N,1.49,K,A*05
$GPGGA,094712.000,4604.6146,N,01107.2168,E,1,5,1.59,220.5,M,47.7,M,,*55
$GPGSA,A,3,05,14,22,15,24,,,,,,,,1.86,1.59,0.96*0D
$GPGSV,3,1,11,13,78,122,,22,65,33,275,33,05,26,212,15,30,25,078,,17,24,108,*78
$GPGSV,3,3,11,23,21,315,,19,13,135,19,47,,,*7A
$GPGLL,4604.6146,N,01107.2168,E,094712.000,A,A*59
$GPTXT,01,01,02,ANTSTATUS=OPEN*2B
$GPRMC,094713.000,A,4604.6148,N,01107.2171,E,0.78,58.34,100124,,,A*5A
$GPVTG,58.34,T,,M,0.78,N,1.45,K,A*08
$GPGGA,094713.000,4604.6148,N,01107.2171,E,1,5,1.59,220.6,M,47.7,M,,*51
$GPGSA,A,3,05,14,22,15,24,,,,,,,,1.86,1.59,0.96*0D
$GPGSV,3,1,11,13,78,122,,22,65,084,15,15,63,291,29,14,48,060,14*76
$GPGSV,3,2,11,24,33,275,3223,21,315,,19,13,135,19,47,,,*7A
$GPGLL,4604.6148,N,01107.2171,E,094713.000,A,A*5E
$GPTXT,01,01,02,ANTSTATUS=OPEN*2B
$GPRMC,094714.000,A,4604.6149,N,01107.2173,E,0.00,59.20,100124,,,A*55
$GPVTG,59.20,T,,M,0.00,N,0.00,K,A*03
$GPGGA,094714.000,4604.6149,N,01107.2173,E,1,5,1.59,220.6,M,47.7,M,,*55
$GPGSA,A,3,05,14,22,15,24,,,,,,,,1.86,1.59,0.96*0D
$GPGSV,3,1,11,13,77,123,,22,65,084,13,15,63,291,28,14,48,060,13*78
$GPGSV,3,2,11,24,33,275,32,05,26,212,15,30,25,078,,17,24,108,*79
$GPGSV,3,3,11,23,21,315,E,094714.000,A,A*5A
$GPTXT,01,01,02,ANTSTATUS=OPEN*2B
$GPRMC,094715.000,A,4604.6150,N,01107.2178,E,0.00,60.61,100124,,,A*58
$GPVTG,60.61,T,,M,0.00,N,0.00,K,A*0C
$GPGGA,094715.000,4604.6150,N,01107.2178,E,1,5,1.59,220.6,M,47.7,M,,*57
$GPGSA,A,3,05,14,22,15,24,,,,,,,,1.86,1.59,0.96*0D
$GPGSV,3,1,11,13,77,123,,22,65,084,14,15,63,291,28,14,48,060,12*7E
$GPGSV,3,2,11,24,33,275,32,05,26,212,14,30,25,078,,17,24,108,*78
$GPGSV,3,3,11,23,21,315,,19,13,135,19,47,,,*7A
$GPGLL,4604.6150,N,01107.2178,E,094715.0
$GPRMC,094716.000,A,4604.6152,N,01107.2184,E,0.88,62.70,100124,,,A*58
$GPVTG,62.70,T,,M,0.88,N,1.64,K,A*0D
$GPGGA,094716.000,4604.6152,N,01107.2184,E,1,5,1.59,220.7,M,47.7,M,,*54
$GPGSA,A,3,05,14,22,15,24,,,,,,,,1.86,1.59,0.96*0D
$GPGSV,3,1,11,13,77,123,,22,65,084,14,15,63,290,28,14,48,060,12*7F
$GPGSV,3,2,11,24,33,275,32,05,26,212,14,30,25,078,,17,24,108,*78
$GPGSV,3,3,11,23,21,315,,19,13,135,19,47,,,*7A
$GPGLL,4604.6152,N,01107.2184,E,094716.000,A,A*5A
$GPTXT,01,01,02,ANTSTATUS=OPEN*2B
$GPRMC,09*5A
$GPVTG,62.32,T,,M,0.88,N,1.62,K,A*0D
$GPGGA,094717.000,4604.6154,N,01107.2187,E,1,5,1.59,220.7,M,47.7,M,,*50
$GPGSA,A,3,05,14,22,15,24,,,,,,,,1.86,1.59,0.96*0D
$GPGSV,3,1,11,13,77,123,,22,65,084,14,15,63,290,28,14,48,060,12*7F
$GPGSV,3,2,11,24,33,275,32,05,26,212,13,30,25,078,,17,24,108,*7F
$GPGSV,3,3,11,23,21,315,,19,13,135,19,47,,,*7A
$GPGLL,4604.6154,N,01107.2187,E,094717.000,A,A*5E
$GPTXT,01,01,02,ANTSTATUS=OPEN*2B
$GPRMC,094718.000,A,4604.6156,N,01107.2192,E,0.92,62.51,100124,,,A*5D
$GPVT156,N,01107.2192,E,1,5,1.59,220.7,M,47.7,M,,*59
$GPGSA,A,3,05,14,22,15,24,,,,,,,,1.86,1.59,0.96*0D
$GPGSV,3,1,11,13,77,123,,22,65,084,14,15,63,290,28,14,48,060,12*7F
$GPGSV,3,2,11,24,33,275,32,05,26,212,16,30,25,078,,17,24,108,*7A
$GPGSV,3,3,11,23,21,315,,19,13,135,19,47,,,*7A
$GPGLL,4604.6156,N,01107.2192,E,094718.000,A,A*57
$GPTXT,01,01,02,ANTSTATUS=OPEN*2B
$GPRMC,094719.000,A,4604.6156,N,01107.2192,E,0.82,62.91,100124,,,A*51
$GPVTG,62.91,T,,M,0.82,N,1.51,K,A*0E
$GPGGA,094719.000,4604.6156,N,0110,22,15,24,,,,,,,,1.86,1.59,0.96*0D
