,02,ANTSTATUS=OPEN*2B

$GPRMC,142104.000,A,4604.6229,N,01107.2220,E,0.00,13.60,080124,,,A*5B

$GPVTG,13.60,T,,M,0.00,N,0.00,K,A*09

$GPGGA,142104.000,4604.6229,N,01107.2220,E,1,5,2.29,179.9,M,47.7,M,,*5C

$GPGSA,A,3,25,12,24,32,29,,,,,,,,5.04,2.29,4.49*0B

9,301,29,12,65,058,14,29,36,209,25,32,35,270,26*7F

$GPGSV,3,2,09,11,31,090,15,24,28,146,28,28,24,310,18,06,24,053,16*7D

$GPGSV,3,3,09,34,,,*77

$GPGLL,4604.6229,N,01107.2220,E,142104.000,A,A*57

$GPTXT,01,01,02,ANTSTATUS=OPEN*2B

$GPRMC,142105.000,A,4604E,0.00,13.60,080124,,,A*5A

$GPVTG,13.60,T,,M,0.00,N,0.00,K,A*09

$GPGGA,142105.000,4604.6229,N,01107.2220,E,1,5,2.29,179.9,M,47.7,M,,*5D

$GPGSA,A,3,25,12,24,32,29,,,,,,,,5.04,2.29,4.49*0B

$GPGSV,3,1,09,25,69,301,29,12,65,058,15,29,36,209,24,32,35,270,2611,31,090,15,24,28,146,27,28,24,310,19,06,24,053,16*73

$GPGSV,3,3,09,34,,,*77

$GPGLL,4604.6229,N,01107.2220,E,142105.000,A,A*56

$GPTXT,01,01,02,ANTSTATUS=OPEN*2B

$GPRMC,142106.000,A,4604.6229,N,01107.2220,E,0.00,13.60,080124,,,A*59

$GPVTG,13.60,T,,M,0$GPGGA,142106.000,4604.6229,N,01107.2220,E,1,5,2.29,179.9,M,47.7,M,,*5E

$GPGSA,A,3,25,12,24,32,29,,,,,,,,5.04,2.29,4.49*0B

$GPGSV,3,1,09,25,69,301,28,12,65,058,14,29,36,209,23,32,35,270,26*78

$GPGSV,3,2,09,11,31,090,16,24,28,146,27,28,24,310,19,06,24,05,09,34,,,*77

$GPGLL,4604.6229,N,01107.2220,E,142106.000,A,A*55

$GPTXT,01,01,02,ANTSTATUS=OPEN*2B

$GPRMC,142107.000,A,4604.6229,N,01107.2220,E,0.00,13.60,080124,,,A*58

$GPVTG,13.60,T,,M,0.00,N,0.00,K,A*09

$GPGGA,142107.000,4604.6229,N,01107.2220,E,1,5,,,*5F

$GPGSA,A,3,25,12,24,32,29,,,,,,,,5.03,2.29,4.48*0D

$GPGSV,3,1,09,25,69,301,28,12,65,058,16,29,36,209,22,32,35,270,26*7B

$GPGSV,3,2,09,11,31,090,16,24,28,146,27,28,24,310,20,06,24,053,16*7A

$GPGSV,3,3,09,34,,,*77

$GPGLL,4604.6229,N,01107.2220,E,1GPTXT,01,01,02,ANTSTATUS=OPEN*2B

$GPRMC,142108.000,A,4604.6229,N,01107.2220,E,0.00,13.60,080124,,,A*57

$GPVTG,13.60,T,,M,0.00,N,0.00,K,A*09

$GPGGA,142108.000,4604.6229,N,01107.2220,E,1,5,2.29,179.9,M,47.7,M,,*50

$GPGSA,A,3,25,12,24,32,29,,,,,,,,5.03,2.3,1,09,25,69,301,27,12,65,058,17,29,36,209,21,32,35,270,26*76

$GPGSV,3,2,09,11,31,090,16,24,28,146,27,28,24,310,21,06,24,053,16*7B

$GPGSV,3,3,09,35,,,*76

$GPGLL,4604.6229,N,01107.2220,E,142108.000,A,A*5B

$GPTXT,01,01,02,ANTSTATUS=OPEN*2B

$GPRMC,14210901107.2220,E,0.00,13.60,080124,,,A*56

$GPVTG,13.60,T,,M,0.00,N,0.00,K,A*09

$GPGGA,142109.000,4604.6229,N,01107.2220,E,1,5,2.29,179.9,M,47.7,M,,*51

$GPGSA,A,3,25,12,24,32,29,,,,,,,,5.03,2.29,4.48*0D

$GPGSV,3,1,09,25,69,301,27,12,65,058,17,29,36,209,21,3GSV,3,2,09,11,31,090,15,24,28,146,27,28,24,310,21,06,24,053,15*7B

$GPGSV,3,3,09,35,,,*76

$GPGLL,4604.6229,N,01107.2220,E,142109.000,A,A*5A

$GPTXT,01,01,02,ANTSTATUS=OPEN*2B

$GPRMC,142110.000,A,4604.6229,N,01107.2220,E,0.00,13.60,080124,,,A*5E

$GPVTG,100,K,A*09

$GPGGA,142110.000,4604.6229,N,01107.2220,E,1,5,2.29,179.9,M,47.7,M,,*59

$GPGSA,A,3,25,12,24,32,29,,,,,,,,5.03,2.29,4.48*0D

$GPGSV,3,1,09,25,69,301,27,12,65,058,17,29,36,209,20,32,35,270,25*74

$GPGSV,3,2,09,11,31,090,15,24,28,146,26,28,24,310,

$GPGSV,3,3,09,35,,,*76

$GPGLL,4604.6229,N,01107.2220,E,142110.000,A,A*52

$GPTXT,01,01,02,ANTSTATUS=OPEN*2B

$GPRMC,142111.000,A,4604.6229,N,01107.2220,E,0.00,13.60,080124,,,A*5F

$GPVTG,13.60,T,,M,0.00,N,0.00,K,A*09

$GPGGA,142111.000,4604.6229,N,01107..9,M,47.7,M,,*59

$GPGSA,A,3,25,12,24,32,29,,,,,,,,5.03,2.28,4.48*0C

$GPGSV,3,1,09,25,69,301,27,12,65,058,17,29,36,209,19,32,35,270,25*7E

$GPGSV,3,2,09,11,31,090,14,24,28,146,26,28,24,310,21,06,24,053,14*7A

$GPGSV,3,3,09,35,,,*76

$GPGLL,4604.6229,N,0110,A,A*53

$GPTXT,01,01,02,ANTSTATUS=OPEN*2B

$GPRMC,142112.000,A,4604.6229,N,01107.2220,E,0.00,13.60,080124,,,A*5C

$GPVTG,13.60,T,,M,0.00,N,0.00,K,A*09

$GPGGA,142112.000,4604.6229,N,01107.2220,E,1,5,2.28,179.9,M,47.7,M,,*5A

$GPGSA,A,3,25,12,24,32,29,,,,0C

$GPGSV,3,1,09,25,69,301,27,12,65,058,17,29,36,209,18,32,35,270,25*7F

$GPGSV,3,2,09,11,31,090,14,24,28,146,26,28,24,310,21,06,24,053,14*7A

$GPGSV,3,3,09,35,,,*76

$GPGLL,4604.6229,N,01107.2220,E,142112.000,A,A*50

$GPTXT,01,01,02,ANTSTATUS=OPEN*2B

$G604.6229,N,01107.2220,E,0.00,13.60,080124,,,A*5D

$GPVTG,13.60,T,,M,0.00,N,0.00,K,A*09

$GPGGA,142113.000,4604.6229,N,01107.2220,E,1,5,2.28,179.9,M,47.7,M,,*5B

$GPGSA,A,3,25,12,24,32,29,,,,,,,,5.02,2.28,4.48*0D

$GPGSV,3,1,09,25,69,301,27,12,65,058,17,29,,25*7F

$GPGSV,3,2,09,11,31,090,14,24,28,146,26,28,24,310,21,06,24,053,14*7A

$GPGSV,3,3,09,35,,,*76

$GPGLL,4604.6229,N,01107.2220,E,142113.000,A,A*51

$GPTXT,01,01,02,ANTSTATUS=OPEN*2B

$GPRMC,142114.000,A,4604.6229,N,01107.2220,E,0.00,13.60,080124,,,A*5M,0.00,N,0.00,K,A*09

$GPGGA,142114.000,4604.6229,N,01107.2220,E,1,5,2.28,179.9,M,47.7,M,,*5C

$GPGSA,A,3,25,12,24,32,29,,,,,,,,5.02,2.28,4.47*02

$GPGSV,3,1,09,25,69,301,28,12,65,058,17,29,36,209,18,32,35,270,25*70

$GPGSV,3,2,09,11,31,090,14,24,28,146,26,053,13*7D

$GPGSV,3,3,09,36,,,*75

$GPGLL,4604.6229,N,01107.2220,E,142114.000,A,A*56

$GPTXT,01,01,02,ANTSTATUS=OPEN*2B

$GPRMC,142115.000,A,4604.6229,N,01107.2220,E,0.00,13.60,080124,,,A*5B

$GPVTG,13.60,T,,M,0.00,N,0.00,K,A*09

$GPGGA,142115.000,4604.62,5,1.47,179.9,M,47.7,M,,*57

$GPGSA,A,3,25,12,24,32,29,,,,,,,,1.76,1.47,0.98*09

$GPGSV,3,1,09,25,69,301,29,12,65,058,17,29,36,209,18,32,35,270,25*71

$GPGSV,3,2,09,11,31,090,14,24,28,146,26,28,24,310,21,06,24,052,13*7C

$GPGSV,3,3,09,36,,,*75

$GPGLL,4604E,142115.000,A,A*57

$GPTXT,01,01,02,ANTSTATUS=OPEN*2B

$GPRMC,142116.000,A,4604.6229,N,01107.2220,E,0.00,13.60,080124,,,A*58

$GPVTG,13.60,T,,M,0.00,N,0.00,K,A*09

$GPGGA,142116.000,4604.6229,N,01107.2220,E,1,5,1.47,179.9,M,47.7,M,,*54

$GPGSA,A,3,25,12,2,1.47,0.98*09

$GPGSV,3,1,09,25,69,301,29,12,65,058,17,29,36,209,18,32,35,270,25*71

$GPGSV,3,2,09,11,31,090,14,24,28,146,26,28,24,310,21,06,24,052,13*7C

$GPGSV,3,3,09,36,,,27*70

$GPGLL,4604.6229,N,01107.2220,E,142116.000,A,A*54

$GPTXT,01,01,02,ANTSTATU

$GPRMC,142117.000,A,4604.6229,N,01107.2220,E,0.00,13.60,080124,,,A*59

$GPVTG,13.60,T,,M,0.00,N,0.00,K,A*09

$GPGGA,142117.000,4604.6229,N,01107.2220,E,1,5,1.47,179.9,M,47.7,M,,*55

$GPGSA,A,3,25,12,24,32,29,,,,,,,,1.76,1.47,0.98*09

$GPGSV,3,1,09,25,69,329,36,209,18,32,35,270,25*79

$GPGSV,3,2,09,11,31,090,14,24,28,146,27,28,24,310,21,06,24,052,13*7D

$GPGSV,3,3,09,36,,,26*71

$GPGLL,4604.6229,N,01107.2220,E,142117.000,A,A*55

$GPTXT,01,01,02,ANTSTATUS=OPEN*2B

$GPRMC,142118.000,A,4604.6229,N,01107.2220,E,,A*56

$GPVTG,13.60,T,,M,0.00,N,0.00,K,A*09

$GPGGA,142118.000,4604.6229,N,01107.2220,E,1,5,1.47,179.9,M,47.7,M,,*5A

$GPGSA,A,3,25,12,24,32,29,,,,,,,,1.76,1.47,0.98*09

$GPGSV,3,1,09,25,69,301,30,12,65,058,17,29,36,209,18,32,35,270,25*79

$GPGSV,3,2,09,146,27,28,24,310,21,06,24,052,13*7D

$GPGSV,3,3,09,36,,,26*71

$GPGLL,4604.6229,N,01107.2220,E,142118.000,A,A*5A

$GPTXT,01,01,02,ANTSTATUS=OPEN*2B

$GPRMC,142119.000,A,4604.6229,N,01107.2220,E,0.00,13.60,080124,,,A*57

$GPVTG,13.60,T,,M,0.00,N,0.00,K,A*09

4604.6229,N,01107.2220,E,1,5,1.47,179.9,M,47.7,M,,*5B

$GPGSA,A,3,25,12,24,32,29,,,,,,,,1.76,1.47,0.98*09

$GPGSV,3,1,09,25,69,301,30,12,65,058,17,29,36,209,18,32,35,270,25*79

$GPGSV,3,2,09,11,31,090,14,24,28,146,27,28,24,310,21,06,24,052,12*7C

$GPGSV,3,PGLL,4604.6229,N,01107.2220,E,142119.000,A,A*5B

$GPTXT,01,01,02,ANTSTATUS=OPEN*2B

$GPRMC,142120.000,A,4604.6229,N,01107.2220,E,0.00,13.60,080124,,,A*5D

$GPVTG,13.60,T,,M,0.00,N,0.00,K,A*09

$GPGGA,142120.000,4604.6229,N,01107.2220,E,1,5,1.47,179.9,M,47.3,25,12,24,32,29,,,,,,,,1.76,1.47,0.98*09

$GPGSV,3,1,09,25,69,301,31,12,65,058,17,29,36,209,18,32,35,270,25*78

$GPGSV,3,2,09,11,31,089,13,24,28,146,27,28,24,310,21,06,24,052,*70

$GPGSV,3,3,09,36,,,27*70

$GPGLL,4604.6229,N,01107.2220,E,142120.000,A,A*51NTSTATUS=OPEN*2B

$GPRMC,142121.000,A,4604.6229,N,01107.2220,E,0.00,13.60,080124,,,A*5C

$GPVTG,13.60,T,,M,0.00,N,0.00,K,A*09

$GPGGA,142121.000,4604.6229,N,01107.2220,E,1,5,1.47,179.9,M,47.7,M,,*50

$GPGSA,A,3,25,12,24,32,29,,,,,,,,1.76,1.47,0.98*09

$GPG,31,12,65,058,17,29,36,209,18,32,35,270,25*78

$GPGSV,3,2,09,11,31,089,12,24,28,146,27,28,24,310,21,06,24,052,*71

$GPGSV,3,3,09,36,,,27*70

$GPGLL,4604.6229,N,01107.2220,E,142121.000,A,A*50

$GPTXT,01,01,02,ANTSTATUS=OPEN*2B

$GPRMC,142122.000,A,4604.62290,13.60,080124,,,A*5F

$GPVTG,13.60,T,,M,0.00,N,0.00,K,A*09

$GPGGA,142122.000,4604.6229,N,01107.2220,E,1,5,1.47,179.9,M,47.7,M,,*53

$GPGSA,A,3,25,12,24,32,29,,,,,,,,1.76,1.47,0.98*09

$GPGSV,3,1,09,25,69,301,31,12,65,058,17,29,36,209,18,32,35,270,25*78

,089,12,24,28,146,27,28,24,310,21,06,24,052,*71

$GPGSV,3,3,09,36,,,27*70

$GPGLL,4604.6229,N,01107.2220,E,142122.000,A,A*53

$GPTXT,01,01,02,ANTSTATUS=OPEN*2B

$GPRMC,142123.000,A,4604.6229,N,01107.2220,E,0.00,13.60,080124,,,A*5E

$GPVTG,13.60,T,,M,0.00,NA,142123.000,4604.6229,N,01107.2220,E,1,5,1.47,179.9,M,47.7,M,,*52

$GPGSA,A,3,25,12,24,32,29,,,,,,,,1.76,1.47,0.98*09

$GPGSV,3,1,09,25,69,301,31,12,65,058,18,29,36,209,18,32,35,270,26*74

$GPGSV,3,2,09,11,31,089,12,24,28,146,27,28,24,310,21,06,24,052,*71,,27*70

$GPGLL,4604.6229,N,01107.2220,E,142123.000,A,A*52

$GPTXT,01,01,02,ANTSTATUS=OPEN*2B

$GPRMC,142124.000,A,4604.6229,N,01107.2220,E,0.00,13.60,080124,,,A*59

$GPVTG,13.60,T,,M,0.00,N,0.00,K,A*09

$GPGGA,142124.000,4604.6229,N,01107.2220,E,1,5,1.47,

$GPGSA,A,3,25,12,24,32,29,,,,,,,,1.76,1.47,0.98*09

$GPGSV,3,1,09,25,69,301,31,12,65,058,18,29,36,209,18,32,35,270,27*75

$GPGSV,3,2,09,11,31,089,12,24,28,146,27,28,24,310,20,06,24,052,*70

$GPGSV,3,3,09,36,,,26*71

$GPGLL,4604.6229,N,01107.2220,E,142124,01,01,02,ANTSTATUS=OPEN*2B

$GPRMC,142125.000,A,4604.6229,N,01107.2220,E,0.00,13.60,080124,,,A*58

$GPVTG,13.60,T,,M,0.00,N,0.00,K,A*09

$GPGGA,142125.000,4604.6229,N,01107.2220,E,1,5,1.47,179.9,M,47.7,M,,*54

$GPGSA,A,3,25,12,24,32,29,,,,,,,,1.76,1.47,0.9,25,69,301,31,12,65,058,18,29,36,209,18,32,35,270,27*75

$GPGSV,3,2,09,11,31,089,12,24,28,146,27,28,24,310,19,06,24,052,*7A

$GPGSV,3,3,09,36,,,25*72

$GPGLL,4604.6229,N,01107.2220,E,142125.000,A,A*54

$GPTXT,01,01,02,ANTSTATUS=OPEN*2B

$GPRMC,142126.000,.2220,E,0.00,13.60,080124,,,A*5B

$GPVTG,13.60,T,,M,0.00,N,0.00,K,A*09

$GPGGA,142126.000,4604.6229,N,01107.2220,E,1,5,1.47,179.9,M,47.7,M,,*57

$GPGSA,A,3,25,12,24,32,29,,,,,,,,1.76,1.47,0.98*09

$GPGSV,3,1,09,25,69,301,31,12,65,058,18,29,36,209,18,32,35,,2,09,11,31,089,12,24,28,146,27,28,24,310,18,06,24,052,*7B

$GPGSV,3,3,09,36,,,24*73

$GPGLL,4604.6229,N,01107.2220,E,142126.000,A,A*57

$GPTXT,01,01,02,ANTSTATUS=OPEN*2B

$GPRMC,142127.000,A,4604.6229,N,01107.2220,E,0.00,13.60,080124,,,A*5A

$GPVTG,13.60,A*09

$GPGGA,142127.000,4604.6229,N,01107.2220,E,1,5,1.47,179.9,M,47.7,M,,*56

$GPGSA,A,3,25,12,24,32,29,,,,,,,,1.76,1.47,0.98*09

$GPGSV,3,1,09,25,69,301,31,12,65,058,18,29,36,209,19,32,35,270,27*74

$GPGSV,3,2,09,11,31,089,13,24,28,146,28,28,24,310,18,06,3,3,09,38,,,*7B

$GPGLL,4604.6229,N,01107.2220,E,142127.000,A,A*56

$GPTXT,01,01,02,ANTSTATUS=OPEN*2B

$GPRMC,142128.000,A,4604.6229,N,01107.2220,E,0.00,13.60,080124,,,A*55

$GPVTG,13.60,T,,M,0.00,N,0.00,K,A*09

$GPGGA,142128.000,4604.6229,N,01107.2220,E,.7,M,,*59

$GPGSA,A,3,25,12,24,32,29,,,,,,,,1.76,1.47,0.98*09

$GPGSV,3,1,09,25,69,301,31,12,65,058,18,29,36,209,19,32,35,270,27*74

$GPGSV,3,2,09,11,31,089,14,24,28,146,28,28,24,310,18,06,24,052,*72

$GPGSV,3,3,09,38,,,*7B

$GPGLL,4604.6229,N,01107.2220,E

$GPTXT,01,01,02,ANTSTATUS=OPEN*2B

$GPRMC,142129.000,A,4604.6229,N,01107.2220,E,0.00,13.60,080124,,,A*54

$GPVTG,13.60,T,,M,0.00,N,0.00,K,A*09

$GPGGA,142129.000,4604.6229,N,01107.2220,E,1,5,1.47,179.9,M,47.7,M,,*58

$GPGSA,A,3,25,12,24,32,29,,,,,,,,1.76,V,3,1,09,25,69,301,31,12,65,058,18,29,36,209,19,32,35,270,27*74

$GPGSV,3,2,09,11,31,089,14,24,28,146,28,28,24,310,18,06,24,052,*72

$GPGSV,3,3,09,38,,,*7B

$GPGLL,4604.6229,N,01107.2220,E,142129.000,A,A*58

$GPTXT,01,01,02,ANTSTATUS=OPEN*2B

$GPRMC,14213001107.2220,E,0.00,13.60,080124,,,A*5C

$GPVTG,13.60,T,,M,0.00,N,0.00,K,A*09

$GPGGA,142130.000,4604.6229,N,01107.2220,E,1,5,1.47,179.9,M,47.7,M,,*50

$GPGSA,A,3,25,12,24,32,29,,,,,,,,1.76,1.47,0.98*09

$GPGSV,3,1,09,25,69,301,31,12,65,058,18,29,36,209,19,3GSV,3,2,09,11,31,089,13,24,28,146,28,28,24,310,17,06,24,052,*7A

$GPGSV,3,3,09,38,,,*7B

$GPGLL,4604.6229,N,01107.2220,E,142130.000,A,A*50

$GPTXT,01,01,02,ANTSTATUS=OPEN*2B

$GPRMC,142131.000,A,4604.6229,N,01107.2220,E,0.00,13.60,080124,,,A*5D

$GPVTG,13.,K,A*09

$GPGGA,142131.000,4604.6229,N,01107.2220,E,1,5,1.47,179.9,M,47.7,M,,*51

$GPGSA,A,3,25,12,24,32,29,,,,,,,,1.76,1.47,0.98*09

$GPGSV,3,1,09,25,69,301,31,12,65,058,18,29,36,209,19,32,35,270,27*74

$GPGSV,3,2,09,11,31,089,13,24,28,146,28,28,24,310,17GSV,3,3,09,38,,,*7B

$GPGLL,4604.6229,N,01107.2220,E,142131.000,A,A*51

$GPTXT,01,01,02,ANTSTATUS=OPEN*2B

$GPRMC,142132.000,A,4604.6229,N,01107.2220,E,0.00,13.60,080124,,,A*5E

$GPVTG,13.60,T,,M,0.00,N,0.00,K,A*09

$GPGGA,142132.000,4604.6229,N,01107.2220,47.7,M,,*52

$GPGSA,A,3,25,12,24,32,29,,,,,,,,1.76,1.47,0.98*09

$GPGSV,3,1,09,25,69,301,31,12,65,058,18,29,36,209,19,32,35,270,27*74

$GPGSV,3,2,09,11,31,089,12,24,28,146,28,28,24,310,17,06,24,052,*7B

$GPGSV,3,3,09,38,,,*7B

$GPGLL,4604.6229,N,01107.22252

$GPTXT,01,01,02,ANTSTATUS=OPEN*2B

$GPRMC,142133.000,A,4604.6229,N,01107.2220,E,0.00,13.60,080124,,,A*5F

$GPVTG,13.60,T,,M,0.00,N,0.00,K,A*09

$GPGGA,142133.000,4604.6229,N,01107.2220,E,1,5,1.47,179.9,M,47.7,M,,*53

$GPGSA,A,3,25,12,24,32,29,,,,,,,,1.PGSV,3,1,09,25,69,301,31,12,65,058,18,29,36,209,19,32,35,270,28*7B

$GPGSV,3,2,09,11,31,089,13,24,27,146,28,28,24,310,17,06,24,052,*75

$GPGSV,3,3,09,38,,,*7B

$GPGLL,4604.6229,N,01107.2220,E,142133.000,A,A*53

$GPTXT,01,01,02,ANTSTATUS=OPEN*2B

$GPRMC,142,N,01107.2220,E,0.00,13.60,080124,,,A*58

$GPVTG,13.60,T,,M,0.00,N,0.00,K,A*09

$GPGGA,142134.000,4604.6229,N,01107.2220,E,1,5,1.47,179.9,M,47.7,M,,*54

$GPGSA,A,3,25,12,24,32,29,,,,,,,,1.76,1.47,0.98*09

$GPGSV,3,1,09,25,69,301,31,12,65,058,17,29,36,209,1$GPGSV,3,2,09,11,31,089,13,24,27,146,28,28,24,310,16,06,24,052,*74

$GPGSV,3,3,09,41,,,*75

$GPGLL,4604.6229,N,01107.2220,E,142134.000,A,A*54

$GPTXT,01,01,02,ANTSTATUS=OPEN*2B

$GPRMC,142135.000,A,4604.6229,N,01107.2220,E,0.00,13.60,080124,,,A*59

$GPVTG,.00,K,A*09

$GPGGA,142135.000,4604.6229,N,01107.2220,E,1,5,1.47,179.9,M,47.7,M,,*55

$GPGSA,A,3,25,12,24,32,29,,,,,,,,1.76,1.47,0.98*09

$GPGSV,3,1,09,25,69,301,32,12,65,058,16,29,36,209,19,32,35,270,28*76

$GPGSV,3,2,09,11,31,089,13,24,27,146,28,28,24,310

$GPGSV,3,3,09,41,,,*75

$GPGLL,4604.6229,N,01107.2220,E,142135.000,A,A*55

$GPTXT,01,01,02,ANTSTATUS=OPEN*2B

$GPRMC,142136.000,A,4604.6229,N,01107.2220,E,0.00,13.60,080124,,,A*5A

$GPVTG,13.60,T,,M,0.00,N,0.00,K,A*09

$GPGGA,142136.000,4604.6229,N,011079.9,M,47.7,M,,*56

$GPGSA,A,3,25,12,24,32,29,,,,,,,,1.76,1.47,0.98*09

$GPGSV,3,1,09,25,69,301,32,12,65,058,16,29,36,209,19,32,35,270,28*76

$GPGSV,3,2,09,11,31,089,13,24,27,146,28,28,24,310,16,06,24,052,16*73

$GPGSV,3,3,09,41,,,*75

$GPGLL,4604.6229,N,0100,A,A*56

$GPTXT,01,01,02,ANTSTATUS=OPEN*2B

$GPRMC,142137.000,A,4604.6229,N,01107.2220,E,0.00,13.60,080124,,,A*5B

$GPVTG,13.60,T,,M,0.00,N,0.00,K,A*09

$GPGGA,142137.000,4604.6229,N,01107.2220,E,1,5,1.47,179.9,M,47.7,M,,*57

$GPGSA,A,3,25,12,24,32,29,,,*09

$GPGSV,3,1,09,25,69,301,32,12,65,058,16,29,36,209,19,32,35,270,28*76

$GPGSV,3,2,09,11,31,089,14,24,27,146,28,28,24,310,14,06,24,052,15*75

$GPGSV,3,3,09,41,,,*75

$GPGLL,4604.6229,N,01107.2220,E,142137.000,A,A*57

$GPTXT,01,01,02,ANTSTATUS=OPEN*2B

$4604.6229,N,01107.2220,E,0.00,13.60,080124,,,A*54

$GPVTG,13.60,T,,M,0.00,N,0.00,K,A*09

$GPGGA,142138.000,4604.6229,N,01107.2220,E,1,5,1.47,179.9,M,47.7,M,,*58

$GPGSA,A,3,25,12,24,32,29,,,,,,,,1.76,1.47,0.98*09

$GPGSV,3,1,09,25,69,301,31,12,65,058,16,290,29*7C

$GPGSV,3,2,09,11,31,089,,24,27,146,28,28,24,310,14,06,24,052,15*70

$GPGSV,3,3,09,41,,,*75

$GPGLL,4604.6229,N,01107.2220,E,142138.000,A,A*58

$GPTXT,01,01,02,ANTSTATUS=OPEN*2B

$GPRMC,142139.000,A,4604.6229,N,01107.2220,E,0.00,13.60,080124,,,A*55,0.00,N,0.00,K,A*09

$GPGGA,142139.000,4604.6229,N,01107.2220,E,1,5,1.47,179.9,M,47.7,M,,*59

$GPGSA,A,3,25,12,24,32,29,,,,,,,,1.76,1.47,0.98*09

$GPGSV,3,1,09,25,69,301,31,12,65,058,14,29,36,210,20,32,35,270,29*74

$GPGSV,3,2,09,11,31,089,,24,27,146,28,282,15*70

$GPGSV,3,3,09,41,,,*75

$GPGLL,4604.6229,N,01107.2220,E,142139.000,A,A*59

$GPTXT,01,01,02,ANTSTATUS=OPEN*2B

$GPRMC,142140.000,A,4604.6229,N,01107.2220,E,0.00,13.60,080124,,,A*5B

$GPVTG,13.60,T,,M,0.00,N,0.00,K,A*09

$GPGGA,142140.000,4604.6229,1.47,179.9,M,47.7,M,,*57

$GPGSA,A,3,25,12,24,32,29,,,,,,,,1.76,1.47,0.98*09

$GPGSV,3,1,10,25,69,301,31,12,65,058,16,29,36,210,21,32,35,270,29*7F

$GPGSV,3,2,10,11,31,089,,24,27,146,28,28,24,310,15,06,24,052,15*79

$GPGSV,3,3,10,31,01,312,,43,,,*4C

$GPGL.2220,E,142140.000,A,A*57

$GPTXT,01,01,02,ANTSTATUS=OPEN*2B

$GPRMC,142141.000,A,4604.6229,N,01107.2220,E,0.00,13.60,080124,,,A*5A

$GPVTG,13.60,T,,M,0.00,N,0.00,K,A*09

$GPGGA,142141.000,4604.6229,N,01107.2220,E,1,5,1.47,179.9,M,47.7,M,,*56

$GPGSA,A,3,2,,1.76,1.47,0.98*09

$GPGSV,3,1,10,25,69,301,31,12,65,058,15,29,36,210,22,32,35,269,29*77

$GPGSV,3,2,10,11,31,089,,24,27,146,29,28,24,310,16,06,24,052,15*7B

$GPGSV,3,3,10,31,01,312,,43,,,*4C

$GPGLL,4604.6229,N,01107.2220,E,142141.000,A,A*56

$GPTXT,01,0*2B

$GPRMC,142142.000,A,4604.6229,N,01107.2220,E,0.00,13.60,080124,,,A*59

$GPVTG,13.60,T,,M,0.00,N,0.00,K,A*09

$GPGGA,142142.000,4604.6229,N,01107.2220,E,1,5,2.27,179.9,M,47.7,M,,*50

$GPGSA,A,3,25,12,24,32,29,,,,,,,,4.99,2.27,4.44*0D

$GPGSV,3,1,10,25,,15,29,36,210,22,32,35,269,29*77

$GPGSV,3,2,10,11,31,089,,24,27,146,29,28,24,310,16,06,24,052,16*78

$GPGSV,3,3,10,31,01,312,,43,,,*4C

$GPGLL,4604.6229,N,01107.2220,E,142142.000,A,A*55

$GPTXT,01,01,02,ANTSTATUS=OPEN*2B

$GPRMC,142143.000,A,4604.6229,N,0.60,080124,,,A*58

$GPVTG,13.60,T,,M,0.00,N,0.00,K,A*09

$GPGGA,142143.000,4604.6229,N,01107.2220,E,1,5,1.47,179.9,M,47.7,M,,*54

$GPGSA,A,3,25,12,24,32,29,,,,,,,,1.76,1.47,0.98*09

$GPGSV,3,1,10,25,69,301,31,12,65,058,15,29,36,210,22,32,35,269,29*77

$GPG,,24,27,146,29,28,24,310,16,06,24,052,16*78

$GPGSV,3,3,10,31,01,312,,43,,,*4C

$GPGLL,4604.6229,N,01107.2220,E,142143.000,A,A*54

$GPTXT,01,01,02,ANTSTATUS=OPEN*2B

$GPRMC,142144.000,A,4604.6229,N,01107.2220,E,0.00,13.60,080124,,,A*5F

$GPVTG,13.60,T,,M,0$GPGGA,142144.000,4604.6229,N,01107.2220,E,1,5,1.47,179.9,M,47.7,M,,*53

$GPGSA,A,3,25,12,24,32,29,,,,,,,,1.76,1.47,0.98*09

$GPGSV,3,1,10,25,69,301,31,12,65,058,15,29,36,210,22,32,35,269,30*7F

$GPGSV,3,2,10,11,31,089,,24,27,146,29,28,24,310,16,06,24,052,0,31,01,312,,43,,,*4C

$GPGLL,4604.6229,N,01107.2220,E,142144.000,A,A*53

$GPTXT,01,01,02,ANTSTATUS=OPEN*2B

$GPRMC,142145.000,A,4604.6229,N,01107.2220,E,0.00,13.60,080124,,,A*5E

$GPVTG,13.60,T,,M,0.00,N,0.00,K,A*09

$GPGGA,142145.000,4604.6229,N,01107.22,M,47.7,M,,*57

$GPGSA,A,3,25,12,24,32,29,,,,,,,,4.98,2.27,4.43*0B

$GPGSV,3,1,10,25,69,301,31,12,65,058,16,29,36,210,22,32,35,269,30*7C

$GPGSV,3,2,10,11,31,089,,24,27,146,29,28,24,310,16,06,24,052,15*7B

$GPGSV,3,3,10,31,01,312,,43,,,*4C

$GPGLL,4604.6222145.000,A,A*52

$GPTXT,01,01,02,ANTSTATUS=OPEN*2B

$GPRMC,142146.000,A,4604.6229,N,01107.2220,E,0.00,13.60,080124,,,A*5D

$GPVTG,13.60,T,,M,0.00,N,0.00,K,A*09

$GPGGA,142146.000,4604.6229,N,01107.2220,E,1,5,2.27,179.9,M,47.7,M,,*54

$GPGSA,A,3,25,12,24,327,4.43*0B

$GPGSV,3,1,10,25,69,301,31,12,65,058,16,29,36,210,21,32,35,269,30*7F

$GPGSV,3,2,10,11,31,089,,24,27,146,29,28,24,310,16,06,24,052,15*7B

$GPGSV,3,3,10,31,01,312,,45,,,*4A

$GPGLL,4604.6229,N,01107.2220,E,142146.000,A,A*51

$GPTXT,01,01,02,ANTST

$GPRMC,142147.000,A,4604.6229,N,01107.2220,E,0.00,13.60,080124,,,A*5C

$GPVTG,13.60,T,,M,0.00,N,0.00,K,A*09

$GPGGA,142147.000,4604.6229,N,01107.2220,E,1,5,1.47,179.9,M,47.7,M,,*50

$GPGSA,A,3,25,12,24,32,29,,,,,,,,1.76,1.47,0.98*09

$GPGSV,3,1,10,25,69,329,36,210,21,32,35,269,30*7F

$GPGSV,3,2,10,11,31,089,,24,27,146,29,28,24,310,16,06,24,052,15*7B

$GPGSV,3,3,10,31,01,312,,45,,,*4A

$GPGLL,4604.6229,N,01107.2220,E,142147.000,A,A*50

$GPTXT,01,01,02,ANTSTATUS=OPEN*2B

$GPRMC,142148.000,A,4604.6229,N,01107080124,,,A*53

$GPVTG,13.60,T,,M,0.00,N,0.00,K,A*09

$GPGGA,142148.000,4604.6229,N,01107.2220,E,1,5,1.47,179.9,M,47.7,M,,*5F

$GPGSA,A,3,25,12,24,32,29,,,,,,,,1.76,1.47,0.98*09

$GPGSV,3,1,10,25,69,301,31,12,65,058,17,29,36,210,21,32,35,269,30*7E

$GPGSV,3,27,146,29,28,24,310,16,06,24,052,15*7B

$GPGSV,3,3,10,31,01,312,,45,,,*4A

$GPGLL,4604.6229,N,01107.2220,E,142148.000,A,A*5F

$GPTXT,01,01,02,ANTSTATUS=OPEN*2B

$GPRMC,142149.000,A,4604.6229,N,01107.2220,E,0.00,13.60,080124,,,A*52

$GPVTG,13.60,T,,M,0.00,GA,142149.000,4604.6229,N,01107.2220,E,1,5,1.47,179.9,M,47.7,M,,*5E

$GPGSA,A,3,25,12,24,32,29,,,,,,,,1.76,1.47,0.98*09

$GPGSV,3,1,10,25,69,301,31,12,65,058,16,29,36,210,21,32,35,269,30*7F

$GPGSV,3,2,10,11,31,089,,24,27,146,29,28,24,310,16,06,24,052,15*7,01,312,,45,,,*4A

$GPGLL,4604.6229,N,01107.2220,E,142149.000,A,A*5E

$GPTXT,01,01,02,ANTSTATUS=OPEN*2B

$GPRMC,142150.000,A,4604.6229,N,01107.2220,E,0.00,13.60,080124,,,A*5A

$GPVTG,13.60,T,,M,0.00,N,0.00,K,A*09

$GPGGA,142150.000,4604.6229,N,01107.2220,E7.7,M,,*56

$GPGSA,A,3,25,12,24,32,29,,,,,,,,1.76,1.47,0.98*09

$GPGSV,3,1,10,25,69,301,31,12,65,058,16,29,36,210,21,32,35,269,30*7F

$GPGSV,3,2,10,11,31,089,,24,27,146,29,28,24,310,17,06,24,052,15*7A

$GPGSV,3,3,10,31,01,312,,45,,,*4A

$GPGLL,4604.6229,N,.000,A,A*56

$GPTXT,01,01,02,ANTSTATUS=OPEN*2B

$GPRMC,142151.000,A,4604.6229,N,01107.2220,E,0.00,13.60,080124,,,A*5B

$GPVTG,13.60,T,,M,0.00,N,0.00,K,A*09

$GPGGA,142151.000,4604.6229,N,01107.2220,E,1,5,1.47,179.9,M,47.7,M,,*57

$GPGSA,A,3,25,12,24,32,29,98*09

$GPGSV,3,1,10,25,69,301,31,12,65,058,16,29,36,210,21,32,35,269,30*7F

$GPGSV,3,2,10,11,31,089,,24,27,146,29,28,24,310,17,06,24,052,15*7A

$GPGSV,3,3,10,31,01,312,,45,,,*4A

$GPGLL,4604.6229,N,01107.2220,E,142151.000,A,A*57

$GPTXT,01,01,02,ANTSTATUS

$GPRMC,142152.000,A,4604.6229,N,01107.2220,E,0.00,13.60,080124,,,A*58

$GPVTG,13.60,T,,M,0.00,N,0.00,K,A*09

$GPGGA,142152.000,4604.6229,N,01107.2220,E,1,5,1.47,179.9,M,47.7,M,,*54

$GPGSA,A,3,25,12,24,32,29,,,,,,,,1.76,1.47,0.98*09

$GPGSV,3,1,10,25,69,329,36,210,20,32,35,269,30*7E

$GPGSV,3,2,10,11,31,089,,24,27,146,29,28,24,310,17,06,24,052,15*7A

$GPGSV,3,3,10,31,01,312,,45,,,*4A

$GPGLL,4604.6229,N,01107.2220,E,142152.000,A,A*54

$GPTXT,01,01,02,ANTSTATUS=OPEN*2B

$GPRMC,142153.000,A,4604.6229,N,01107080124,,,A*59

$GPVTG,13.60,T,,M,0.00,N,0.00,K,A*09

$GPGGA,142153.000,4604.6229,N,01107.2220,E,1,5,1.47,179.9,M,47.7,M,,*55

$GPGSA,A,3,25,12,24,32,29,,,,,,,,1.76,1.47,0.98*09

$GPGSV,3,1,10,25,69,301,31,12,65,058,16,29,36,210,20,32,35,269,30*7E

$GPGSV,3,27,146,29,28,24,310,17,06,24,052,15*7A

$GPGSV,3,3,10,31,01,312,,46,,,*49

$GPGLL,4604.6229,N,01107.2220,E,142153.000,A,A*55

$GPTXT,01,01,02,ANTSTATUS=OPEN*2B

$GPRMC,142154.000,A,4604.6229,N,01107.2220,E,0.00,13.60,080124,,,A*5E

$GPVTG,13.60,T,,M,0.00,GA,142154.000,4604.6229,N,01107.2220,E,1,5,1.47,179.9,M,47.7,M,,*52

$GPGSA,A,3,25,12,24,32,29,,,,,,,,1.76,1.47,0.98*09

$GPGSV,3,1,10,25,69,301,31,12,65,058,16,29,36,210,21,32,35,269,30*7F

$GPGSV,3,2,10,11,31,089,,24,27,146,29,28,24,310,17,06,24,052,15*7,01,312,,46,,,*49

$GPGLL,4604.6229,N,01107.2220,E,142154.000,A,A*52

$GPTXT,01,01,02,ANTSTATUS=OPEN*2B

$GPRMC,142155.000,A,4604.6229,N,01107.2220,E,0.00,13.60,080124,,,A*5F

$GPVTG,13.60,T,,M,0.00,N,0.00,K,A*09

$GPGGA,142155.000,4604.6229,N,01107.2220,E7.7,M,,*53

$GPGSA,A,3,25,12,24,32,29,,,,,,,,1.76,1.47,0.98*09

$GPGSV,3,1,10,25,69,301,31,12,65,058,16,29,36,210,22,32,35,269,30*7C

$GPGSV,3,2,10,11,31,089,15,24,27,146,29,28,24,310,17,06,24,052,15*7E

$GPGSV,3,3,10,31,01,312,,46,,,*49

$GPGLL,4604.6229,55.000,A,A*53

$GPTXT,01,01,02,ANTSTATUS=OPEN*2B

$GPRMC,142156.000,A,4604.6229,N,01107.2220,E,0.00,13.60,080124,,,A*5C

$GPVTG,13.60,T,,M,0.00,N,0.00,K,A*09

$GPGGA,142156.000,4604.6229,N,01107.2220,E,1,5,1.47,179.9,M,47.7,M,,*50

$GPGSA,A,3,25,12,24,32,20.98*09

$GPGSV,3,1,10,25,69,301,31,12,65,059,16,29,36,210,22,32,35,269,31*7C

$GPGSV,3,2,10,11,31,089,16,24,27,146,28,28,24,310,17,06,24,052,14*7D

$GPGSV,3,3,10,31,01,312,,46,,,*49

$GPGLL,4604.6229,N,01107.2220,E,142156.000,A,A*50

$GPTXT,01,01,02,ANTST

$GPRMC,142157.000,A,4604.6229,N,01107.2220,E,0.00,13.60,080124,,,A*5D

$GPVTG,13.60,T,,M,0.00,N,0.00,K,A*09

$GPGGA,142157.000,4604.6229,N,01107.2220,E,1,5,1.47,179.9,M,47.7,M,,*51

$GPGSA,A,3,25,12,24,32,29,,,,,,,,1.76,1.47,0.98*09

$GPGSV,3,1,10,25,69,329,36,210,22,32,35,269,31*7F

$GPGSV,3,2,10,11,31,089,15,24,27,146,28,28,24,310,17,06,24,052,14*7E

$GPGSV,3,3,10,31,01,312,,46,,,*49

$GPGLL,4604.6229,N,01107.2220,E,142157.000,A,A*51

$GPTXT,01,01,02,ANTSTATUS=OPEN*2B

$GPRMC,142158.000,A,4604.6229,N,0110,080124,,,A*52

$GPVTG,13.60,T,,M,0.00,N,0.00,K,A*09

$GPGGA,142158.000,4604.6229,N,01107.2220,E,1,5,1.47,179.9,M,47.7,M,,*5E

$GPGSA,A,3,25,12,24,32,29,,,,,,,,1.76,1.47,0.98*09

$GPGSV,3,1,10,25,69,301,32,12,65,059,16,29,36,210,22,32,35,269,30*7E

$GPGSV5,24,27,146,27,28,24,310,17,06,24,052,14*71

$GPGSV,3,3,10,31,01,312,,46,,,*49

$GPGLL,4604.6229,N,01107.2220,E,142158.000,A,A*5E

$GPTXT,01,01,02,ANTSTATUS=OPEN*2B

$GPRMC,142159.000,A,4604.6229,N,01107.2220,E,0.00,13.60,080124,,,A*53

$GPVTG,13.60,T,,M,0$GPGGA,142159.000,4604.6229,N,01107.2220,E,1,5,2.26,179.9,M,47.7,M,,*5B

$GPGSA,A,3,25,12,24,32,29,,,,,,,,4.96,2.26,4.42*05

$GPGSV,3,1,10,25,69,301,32,12,65,059,16,29,36,210,22,32,35,269,30*7E

$GPGSV,3,2,10,11,31,089,15,24,27,146,27,28,24,310,17,06,24,05,10,31,01,312,,47,,,*48

$GPGLL,4604.6229,N,01107.2220,E,142159.000,A,A*5F

$GPTXT,01,01,02,ANTSTATUS=OPEN*2B

$GPRMC,142200.000,A,4604.6229,N,01107.2220,E,0.00,13.60,080124,,,A*5C

$GPVTG,13.60,T,,M,0.00,N,0.00,K,A*09

$GPGGA,142200.000,4604.6229,N,01107..9,M,47.7,M,,*50

$GPGSA,A,3,25,12,24,32,29,,,,,,,,1.76,1.47,0.98*09

$GPGSV,3,1,10,25,69,301,32,12,65,059,16,29,36,210,23,32,35,269,31*7E

$GPGSV,3,2,10,11,31,089,15,24,27,146,27,28,24,310,17,06,24,052,14*71

$GPGSV,3,3,10,31,01,312,,47,,,*48

$GPGLL,4604E,142200.000,A,A*50

$GPTXT,01,01,02,ANTSTATUS=OPEN*2B

$GPRMC,142201.000,A,4604.6229,N,01107.2220,E,0.00,13.60,080124,,,A*5D

$GPVTG,13.60,T,,M,0.00,N,0.00,K,A*09

$GPGGA,142201.000,4604.6229,N,01107.2220,E,1,5,1.47,179.9,M,47.7,M,,*51

$GPGSA,A,3,25,12,2,1.47,0.98*09

$GPGSV,3,1,10,25,69,301,32,12,65,059,16,29,36,210,23,32,35,269,31*7E

$GPGSV,3,2,10,11,31,089,16,24,27,146,27,28,24,310,17,06,24,052,14*72

$GPGSV,3,3,10,31,01,312,,47,,,*48

$GPGLL,4604.6229,N,01107.2220,E,142201.000,A,A*51

$GPTXT,01,01,02

$GPRMC,142202.000,A,4604.6229,N,01107.2220,E,0.00,13.60,080124,,,A*5E

$GPVTG,13.60,T,,M,0.00,N,0.00,K,A*09

$GPGGA,142202.000,4604.6229,N,01107.2220,E,1,5,1.47,179.9,M,47.7,M,,*52

$GPGSA,A,3,25,12,24,32,29,,,,,,,,1.76,1.47,0.98*09

$GPGSV,3,1,10,25,69,329,36,210,23,32,35,269,31*7E

$GPGSV,3,2,10,11,31,089,16,24,27,146,27,28,24,310,17,06,24,052,14*72

$GPGSV,3,3,10,31,01,312,,47,,,*48

$GPGLL,4604.6229,N,01107.2220,E,142202.000,A,A*52

$GPTXT,01,01,02,ANTSTATUS=OPEN*2B

$GPRMC,142203.000,A,4604.6229,N,0110,080124,,,A*5F

$GPVTG,13.60,T,,M,0.00,N,0.00,K,A*09

$GPGGA,142203.000,4604.6229,N,01107.2220,E,1,5,1.47,179.9,M,47.7,M,,*53

$GPGSA,A,3,25,12,24,32,29,,,,,,,,1.76,1.47,0.98*09

$GPGSV,3,1,10,25,69,301,32,12,65,059,14,29,36,210,23,32,35,269,31*7C

$GPGSV6,24,27,146,26,28,24,310,18,06,24,052,14*7C

$GPGSV,3,3,10,31,01,312,,47,,,*48

$GPGLL,4604.6229,N,01107.2220,E,142203.000,A,A*53

$GPTXT,01,01,02,ANTSTATUS=OPEN*2B

$GPRMC,142204.000,A,4604.6229,N,01107.2220,E,0.00,13.60,080124,,,A*58

$GPVTG,13.60,T,,M,0$GPGGA,142204.000,4604.6229,N,01107.2220,E,1,5,1.47,179.9,M,47.7,M,,*54

$GPGSA,A,3,25,12,24,32,29,,,,,,,,1.76,1.47,0.98*09

$GPGSV,3,1,10,25,69,301,32,12,65,059,14,29,36,210,23,32,35,269,31*7C

$GPGSV,3,2,10,11,31,089,16,24,27,146,26,28,24,310,18,06,24,05,10,31,01,312,,47,,,*48

$GPGLL,4604.6229,N,01107.2220,E,142204.000,A,A*54

$GPTXT,01,01,02,ANTSTATUS=OPEN*2B

$GPRMC,142205.000,A,4604.6229,N,01107.2220,E,0.00,13.60,080124,,,A*59

$GPVTG,13.60,T,,M,0.00,N,0.00,K,A*09

$GPGGA,142205.000,4604.6229,N,01107..9,M,47.7,M,,*55

$GPGSA,A,3,25,12,24,32,29,,,,,,,,1.76,1.47,0.98*09

$GPGSV,3,1,10,25,69,301,32,12,65,059,13,29,36,210,23,32,35,269,31*7B

$GPGSV,3,2,10,11,31,089,16,24,27,146,26,28,24,310,18,06,24,052,*79

$GPGSV,3,3,10,31,01,312,,47,,,*48

$GPGLL,4604.6142205.000,A,A*55

$GPTXT,01,01,02,ANTSTATUS=OPEN*2B

$GPRMC,142206.000,A,4604.6229,N,01107.2220,E,0.00,13.60,080124,,,A*5A

$GPVTG,13.60,T,,M,0.00,N,0.00,K,A*09

$GPGGA,142206.000,4604.6229,N,01107.2220,E,1,5,1.47,179.9,M,47.7,M,,*56

$GPGSA,A,3,25,12,24,.47,0.98*09

$GPGSV,3,1,10,25,69,301,32,12,65,059,16,29,36,210,23,32,35,269,31*7E

$GPGSV,3,2,10,11,31,089,16,24,27,146,26,28,24,310,18,06,24,052,*79

$GPGSV,3,3,10,31,01,312,,49,,,*46

$GPGLL,4604.6229,N,01107.2220,E,142206.000,A,A*56

$GPTXT,01,01,02,ANT

$GPRMC,142207.000,A,4604.6229,N,01107.2220,E,0.00,13.60,080124,,,A*5B

$GPVTG,13.60,T,,M,0.00,N,0.00,K,A*09

$GPGGA,142207.000,4604.6229,N,01107.2220,E,1,5,1.47,179.9,M,47.7,M,,*57

$GPGSA,A,3,25,12,24,32,29,,,,,,,,1.76,1.47,0.98*09

$GPGSV,3,1,10,25,69,329,36,210,23,32,35,269,31*7C

$GPGSV,3,2,10,11,31,089,16,24,27,146,26,28,24,310,18,06,24,052,*79

$GPGSV,3,3,10,31,01,312,,49,,,*46

$GPGLL,4604.6229,N,01107.2220,E,142207.000,A,A*57

$GPTXT,01,01,02,ANTSTATUS=OPEN*2B

$GPRMC,142208.000,A,4604.6229,N,01107080124,,,A*54

$GPVTG,13.60,T,,M,0.00,N,0.00,K,A*09

$GPGGA,142208.000,4604.6229,N,01107.2220,E,1,5,1.47,179.9,M,47.7,M,,*58

$GPGSA,A,3,25,12,24,32,29,,,,,,,,1.76,1.47,0.98*09

$GPGSV,3,1,10,25,69,301,32,12,65,059,14,29,36,210,23,32,35,269,31*7C

$GPGSV,324,27,146,26,28,24,310,18,06,24,052,*79

$GPGSV,3,3,10,31,01,312,,49,,,*46

$GPGLL,4604.6229,N,01107.2220,E,142208.000,A,A*58

$GPTXT,01,01,02,ANTSTATUS=OPEN*2B

$GPRMC,142209.000,A,4604.6229,N,01107.2220,E,0.00,13.60,080124,,,A*55

$GPVTG,13.60,T,,M,0.00,GA,142209.000,4604.6229,N,01107.2220,E,1,5,1.47,179.9,M,47.7,M,,*59

$GPGSA,A,3,25,12,24,32,29,,,,,,,,1.76,1.47,0.98*09

$GPGSV,3,1,10,25,69,302,32,12,65,059,14,29,36,210,23,32,35,269,31*7F

$GPGSV,3,2,10,11,31,089,16,24,27,146,26,28,24,310,17,06,24,052,*7,01,312,,49,,,*46

$GPGLL,4604.6229,N,01107.2220,E,142209.000,A,A*59

$GPTXT,01,01,02,ANTSTATUS=OPEN*2B

$GPRMC,142210.000,A,4604.6229,N,01107.2220,E,0.00,13.60,080124,,,A*5D

$GPVTG,13.60,T,,M,0.00,N,0.00,K,A*09

$GPGGA,142210.000,4604.6229,N,01107.2220,E7.7,M,,*51

$GPGSA,A,3,25,12,24,32,29,,,,,,,,1.76,1.47,0.98*09

$GPGSV,3,1,10,25,69,302,32,12,65,059,15,29,36,210,23,32,35,269,31*7E

$GPGSV,3,2,10,11,31,089,16,24,27,146,26,28,24,310,17,06,24,052,*76

$GPGSV,3,3,10,31,01,312,,49,,,*46

$GPGLL,4604.6229,N,.000,A,A*51

$GPTXT,01,01,02,ANTSTATUS=OPEN*2B

$GPRMC,142211.000,A,4604.6229,N,01107.2220,E,0.00,13.60,080124,,,A*5C

$GPVTG,13.60,T,,M,0.00,N,0.00,K,A*09

$GPGGA,142211.000,4604.6229,N,01107.2220,E,1,5,1.47,179.9,M,47.7,M,,*50

$GPGSA,A,3,25,12,24,32,29,98*09

$GPGSV,3,1,10,25,69,302,32,12,65,059,17,29,36,210,23,32,35,269,31*7C

$GPGSV,3,2,10,11,31,089,16,24,27,146,25,28,24,310,17,06,24,052,*75

$GPGSV,3,3,10,31,01,312,,49,,,*46

$GPGLL,4604.6229,N,01107.2220,E,142211.000,A,A*50

$GPTXT,01,01,02,ANTSTATUS

$GPRMC,142212.000,A,4604.6229,N,01107.2220,E,0.00,13.60,080124,,,A*5F

$GPVTG,13.60,T,,M,0.00,N,0.00,K,A*09

$GPGGA,142212.000,4604.6229,N,01107.2220,E,1,5,1.47,179.9,M,47.7,M,,*53

$GPGSA,A,3,25,12,24,32,29,,,,,,,,1.76,1.47,0.98*09

$GPGSV,3,1,10,25,69,329,36,210,23,37,36,165,*76

$GPGSV,3,2,10,32,35,269,31,11,31,089,16,24,27,146,24,28,24,310,17*7B

$GPGSV,3,3,10,06,24,052,,31,01,312,*7C

$GPGLL,4604.6229,N,01107.2220,E,142212.000,A,A*53

$GPTXT,01,01,02,ANTSTATUS=OPEN*2B

$GPRMC,142213.000,A,4604.6229,N,3.60,080124,,,A*5E

$GPVTG,13.60,T,,M,0.00,N,0.00,K,A*09

$GPGGA,142213.000,4604.6229,N,01107.2220,E,1,5,1.47,179.9,M,47.7,M,,*52

$GPGSA,A,3,25,12,24,32,29,,,,,,,,1.76,1.47,0.98*09

$GPGSV,3,1,10,25,69,302,33,12,65,059,17,29,37,210,23,37,36,165,*77

$GPGS31,11,31,089,15,24,27,146,24,28,24,310,17*78

$GPGSV,3,3,10,06,24,052,,31,01,312,*7C

$GPGLL,4604.6229,N,01107.2220,E,142213.000,A,A*52

$GPTXT,01,01,02,ANTSTATUS=OPEN*2B

$GPRMC,142214.000,A,4604.6229,N,01107.2220,E,0.00,13.60,080124,,,A*59

$GPVTG,13.60,A*09

$GPGGA,142214.000,4604.6229,N,01107.2220,E,1,5,1.47,179.9,M,47.7,M,,*55

$GPGSA,A,3,25,12,24,32,29,,,,,,,,1.76,1.47,0.98*09

$GPGSV,3,1,10,25,69,302,33,12,65,059,17,29,37,210,23,37,36,165,*77

$GPGSV,3,2,10,32,35,269,31,11,31,089,15,24,27,146,24,28,2,3,3,10,06,24,052,,31,01,312,*7C

$GPGLL,4604.6229,N,01107.2220,E,142214.000,A,A*55

$GPTXT,01,01,02,ANTSTATUS=OPEN*2B

$GPRMC,142215.000,A,4604.6229,N,01107.2220,E,0.00,13.60,080124,,,A*58

$GPVTG,13.60,T,,M,0.00,N,0.00,K,A*09

$GPGGA,142215.000,4604.6229,1.47,179.9,M,47.7,M,,*54

$GPGSA,A,3,25,12,24,32,29,,,,,,,,1.76,1.47,0.98*09

$GPGSV,3,1,10,25,69,302,33,12,65,059,17,29,37,210,22,37,36,165,*76

$GPGSV,3,2,10,32,35,269,31,11,31,089,15,24,27,146,24,28,24,310,17*78

$GPGSV,3,3,10,06,24,052,,31,01,312,*7C

,01107.2220,E,142215.000,A,A*54

$GPTXT,01,01,02,ANTSTATUS=OPEN*2B

$GPRMC,142216.000,A,4604.6229,N,01107.2220,E,0.00,13.60,080124,,,A*5B

$GPVTG,13.60,T,,M,0.00,N,0.00,K,A*09

$GPGGA,142216.000,4604.6229,N,01107.2220,E,1,5,1.47,179.9,M,47.7,M,,*57

$GPGSA,,,,,,,,1.76,1.47,0.98*09

$GPGSV,3,1,10,25,69,302,33,12,65,059,17,29,37,210,22,37,36,165,*76

$GPGSV,3,2,10,32,35,269,31,11,31,089,15,24,27,146,24,28,24,310,17*78

$GPGSV,3,3,10,06,24,052,,31,01,312,*7C

$GPGLL,4604.6229,N,01107.2220,E,142216.000,A,A*57

STATUS=OPEN*2B

$GPRMC,142217.000,A,4604.6229,N,01107.2220,E,0.00,13.60,080124,,,A*5A

$GPVTG,13.60,T,,M,0.00,N,0.00,K,A*09

$GPGGA,142217.000,4604.6229,N,01107.2220,E,1,5,1.47,179.9,M,47.7,M,,*56

$GPGSA,A,3,25,12,24,32,29,,,,,,,,1.76,1.47,0.98*09

$GPGSV3,12,65,059,16,29,37,210,21,37,36,165,*74

$GPGSV,3,2,10,32,35,269,31,11,31,089,16,24,27,146,23,28,24,310,17*7C

$GPGSV,3,3,10,06,24,052,,31,01,312,*7C

$GPGLL,4604.6229,N,01107.2220,E,142217.000,A,A*56

$GPTXT,01,01,02,ANTSTATUS=OPEN*2B

$GPRMC,142218.0007.2220,E,0.00,13.60,080124,,,A*55

$GPVTG,13.60,T,,M,0.00,N,0.00,K,A*09

$GPGGA,142218.000,4604.6229,N,01107.2220,E,1,5,1.47,179.9,M,47.7,M,,*59

$GPGSA,A,3,25,12,24,32,29,,,,,,,,1.76,1.47,0.98*09

$GPGSV,3,1,10,25,69,302,33,12,65,059,16,29,37,210,21,37,362,10,32,35,269,31,11,31,089,16,24,27,146,23,28,24,310,17*7C

$GPGSV,3,3,10,06,24,052,,31,01,312,*7C

$GPGLL,4604.6229,N,01107.2220,E,142218.000,A,A*59

$GPTXT,01,01,02,ANTSTATUS=OPEN*2B

$GPRMC,142219.000,A,4604.6229,N,01107.2220,E,0.00,13.60,080124,,,A*54,0.00,N,0.00,K,A*09

$GPGGA,142219.000,4604.6229,N,01107.2220,E,1,5,1.47,179.9,M,47.7,M,,*58

$GPGSA,A,3,25,12,24,32,29,,,,,,,,1.76,1.47,0.98*09

$GPGSV,3,1,10,25,69,302,33,12,65,059,16,29,37,210,21,37,36,165,*74

$GPGSV,3,2,10,32,35,269,31,11,31,089,16,240,17*7C

$GPGSV,3,3,10,06,24,052,,31,01,312,*7C

$GPGLL,4604.6229,N,01107.2220,E,142219.000,A,A*58

$GPTXT,01,01,02,ANTSTATUS=OPEN*2B

$GPRMC,142220.000,A,4604.6229,N,01107.2220,E,0.00,13.60,080124,,,A*5E

$GPVTG,13.60,T,,M,0.00,N,0.00,K,A*09

$GPGGA,142221107.2220,E,1,5,1.47,179.9,M,47.7,M,,*52

$GPGSA,A,3,25,12,24,32,29,,,,,,,,1.76,1.47,0.98*09

$GPGSV,3,1,10,25,69,302,33,12,65,059,14,29,37,210,21,37,36,165,*76

$GPGSV,3,2,10,32,35,269,31,11,31,089,16,24,27,146,23,28,24,310,17*7C

$GPGSV,3,3,10,06,24,052,GLL,4604.6229,N,01107.2220,E,142220.000,A,A*52

$GPTXT,01,01,02,ANTSTATUS=OPEN*2B

$GPRMC,142221.000,A,4604.6229,N,01107.2220,E,0.00,13.60,080124,,,A*5F

$GPVTG,13.60,T,,M,0.00,N,0.00,K,A*09

$GPGGA,142221.000,4604.6229,N,01107.2220,E,1,5,1.47,179.9,M,47.7,25,12,24,32,29,,,,,,,,1.76,1.47,0.98*09

$GPGSV,3,1,10,25,69,302,33,12,65,059,14,29,37,210,21,32,35,269,31*7D

$GPGSV,3,2,10,39,34,161,,11,31,089,16,24,27,146,23,28,24,310,17*7F

$GPGSV,3,3,10,06,24,052,,31,01,312,*7C

$GPGLL,4604.6229,N,01107.2220,E,1422XT,01,01,02,ANTSTATUS=OPEN*2B

$GPRMC,142222.000,A,4604.6229,N,01107.2220,E,0.00,13.60,080124,,,A*5C

$GPVTG,13.60,T,,M,0.00,N,0.00,K,A*09

$GPGGA,142222.000,4604.6229,N,01107.2220,E,1,5,1.47,179.9,M,47.7,M,,*50

$GPGSA,A,3,25,12,24,32,29,,,,,,,,1.76,1.47,,10,25,69,302,33,12,65,059,16,29,37,210,21,32,35,269,31*7F

$GPGSV,3,2,10,39,34,161,,11,31,089,16,24,27,146,23,28,24,310,17*7F

$GPGSV,3,3,10,06,24,052,,31,01,312,*7C

$GPGLL,4604.6229,N,01107.2220,E,142222.000,A,A*50

$GPTXT,01,01,02,ANTSTATUS=OPEN*2B

$G604.6229,N,01107.2220,E,0.00,13.60,080124,,,A*5D

$GPVTG,13.60,T,,M,0.00,N,0.00,K,A*09

$GPGGA,142223.000,4604.6229,N,01107.2220,E,1,5,1.47,179.9,M,47.7,M,,*51

$GPGSA,A,3,25,12,24,32,29,,,,,,,,1.76,1.47,0.97*06

$GPGSV,3,1,10,25,69,302,33,12,65,059,16,29,,31*7F

$GPGSV,3,2,10,39,34,161,,11,31,089,16,24,27,146,23,28,24,310,17*7F

$GPGSV,3,3,10,06,24,052,,31,01,312,*7C

$GPGLL,4604.6229,N,01107.2220,E,142223.000,A,A*51

$GPTXT,01,01,02,ANTSTATUS=OPEN*2B

$GPRMC,142224.000,A,4604.6229,N,01107.2220,E,0.00,13.6PVTG,13.60,T,,M,0.00,N,0.00,K,A*09

$GPGGA,142224.000,4604.6229,N,01107.2220,E,1,5,1.47,179.9,M,47.7,M,,*56

$GPGSA,A,3,25,12,24,32,29,,,,,,,,1.76,1.47,0.97*06

$GPGSV,3,1,10,25,69,302,33,12,65,059,14,29,37,210,21,32,35,269,31*7D

$GPGSV,3,2,10,39,34,161,,146,23,28,24,310,17*7C

$GPGSV,3,3,10,06,24,052,,31,01,312,*7C

$GPGLL,4604.6229,N,01107.2220,E,142224.000,A,A*56

$GPTXT,01,01,02,ANTSTATUS=OPEN*2B

$GPRMC,142225.000,A,4604.6229,N,01107.2220,E,0.00,13.60,080124,,,A*5B

$GPVTG,13.60,T,,M,0.00,N,0.00,K,A*00,4604.6229,N,01107.2220,E,1,5,1.47,179.9,M,47.7,M,,*57

$GPGSA,A,3,25,12,24,32,29,,,,,,,,1.76,1.47,0.97*06

$GPGSV,3,1,10,25,69,302,32,12,65,059,15,29,37,210,21,32,35,269,31*7D

$GPGSV,3,2,10,39,34,161,,11,31,089,15,24,27,146,22,28,24,310,17*7D

$GPGSV,3,01,312,*7C

$GPGLL,4604.6229,N,01107.2220,E,142225.000,A,A*57

$GPTXT,01,01,02,ANTSTATUS=OPEN*2B

$GPRMC,142226.000,A,4604.6229,N,01107.2220,E,0.00,13.60,080124,,,A*58

$GPVTG,13.60,T,,M,0.00,N,0.00,K,A*09

$GPGGA,142226.000,4604.6229,N,01107.2220,E,1,5,1.*54

$GPGSA,A,3,25,12,24,32,29,,,,,,,,1.76,1.47,0.97*06

$GPGSV,3,1,10,25,69,302,32,12,65,059,16,29,37,210,21,32,35,269,31*7E

$GPGSV,3,2,10,39,34,161,,11,31,089,14,24,27,146,22,28,24,310,17*7C

$GPGSV,3,3,10,06,24,052,15,31,01,312,*78

$GPGLL,4604.6229,N,.000,A,A*54

$GPTXT,01,01,02,ANTSTATUS=OPEN*2B

$GPRMC,142227.000,A,4604.6229,N,01107.2220,E,0.00,13.60,080124,,,A*59

$GPVTG,13.60,T,,M,0.00,N,0.00,K,A*09

$GPGGA,142227.000,4604.6229,N,01107.2220,E,1,5,1.47,179.9,M,47.7,M,,*55

$GPGSA,A,3,25,12,24,32,29,97*06

$GPGSV,3,1,10,25,69,302,32,12,65,059,14,29,37,210,21,32,35,269,31*7C

$GPGSV,3,2,10,39,34,161,,11,31,089,14,24,27,146,22,28,24,310,17*7C

$GPGSV,3,3,10,06,24,052,14,31,01,312,*79

$GPGLL,4604.6229,N,01107.2220,E,142227.000,A,A*55

$GPTXT,01,01,02,AN

$GPRMC,142228.000,A,4604.6229,N,01107.2220,E,0.00,13.60,080124,,,A*56

$GPVTG,13.60,T,,M,0.00,N,0.00,K,A*09

$GPGGA,142228.000,4604.6229,N,01107.2220,E,1,5,1.47,179.9,M,47.7,M,,*5A

$GPGSA,A,3,25,12,24,32,29,,,,,,,,1.76,1.47,0.97*06

$GPGSV,3,1,10,25,69,329,37,210,21,32,35,269,31*7B

$GPGSV,3,2,10,39,34,161,,11,31,089,13,24,27,146,22,28,24,310,17*7B

$GPGSV,3,3,10,06,24,052,14,31,01,312,*79

$GPGLL,4604.6229,N,01107.2220,E,142228.000,A,A*5A

$GPTXT,01,01,02,ANTSTATUS=OPEN*2B

$GPRMC,142229.000,A,4604.6229,,13.60,080124,,,A*57

$GPVTG,13.60,T,,M,0.00,N,0.00,K,A*09

$GPGGA,142229.000,4604.6229,N,01107.2220,E,1,5,1.47,179.9,M,47.7,M,,*5B

$GPGSA,A,3,25,12,24,32,29,,,,,,,,1.76,1.47,0.97*06

$GPGSV,3,1,10,25,69,302,32,12,65,059,15,29,37,210,21,32,35,269,31*7D

$161,,11,31,089,12,24,27,146,23,28,24,310,17*7B

$GPGSV,3,3,10,06,24,052,14,31,01,312,*79

$GPGLL,4604.6229,N,01107.2220,E,142229.000,A,A*5B

$GPTXT,01,01,02,ANTSTATUS=OPEN*2B

$GPRMC,142230.000,A,4604.6229,N,01107.2220,E,0.00,13.60,080124,,,A*5F

$GPVTG,130,K,A*09

$GPGGA,142230.000,4604.6229,N,01107.2220,E,1,5,1.47,179.9,M,47.7,M,,*53

$GPGSA,A,3,25,12,24,32,29,,,,,,,,1.76,1.47,0.97*06

$GPGSV,3,1,10,25,69,302,32,12,65,059,14,29,37,210,21,32,35,269,31*7C

$GPGSV,3,2,10,11,31,089,12,33,30,214,,24,27,146,23,PGSV,3,3,10,06,24,052,14,31,01,312,*79

$GPGLL,4604.6229,N,01107.2220,E,142230.000,A,A*53

$GPTXT,01,01,02,ANTSTATUS=OPEN*2B

$GPRMC,142231.000,A,4604.6229,N,01107.2220,E,0.00,13.60,080124,,,A*5E

$GPVTG,13.60,T,,M,0.00,N,0.00,K,A*09

$GPGGA,142231.000,460,E,1,5,1.47,179.9,M,47.7,M,,*52

$GPGSA,A,3,25,12,24,32,29,,,,,,,,1.76,1.47,0.97*06

$GPGSV,3,1,10,25,69,302,32,12,65,059,14,29,37,210,21,32,35,269,31*7C

$GPGSV,3,2,10,11,31,089,12,33,30,214,,24,27,146,24,28,24,310,17*73

$GPGSV,3,3,10,06,24,052,14,31,01,4.6229,N,01107.2220,E,142231.000,A,A*52

$GPTXT,01,01,02,ANTSTATUS=OPEN*2B

$GPRMC,142232.000,A,4604.6229,N,01107.2220,E,0.00,13.60,080124,,,A*5D

$GPVTG,13.60,T,,M,0.00,N,0.00,K,A*09

$GPGGA,142232.000,4604.6229,N,01107.2220,E,1,5,1.47,179.9,M,47.7,M,,*5124,32,29,,,,,,,,1.76,1.47,0.97*06

$GPGSV,3,1,10,25,69,302,32,12,65,059,15,29,37,210,21,32,35,269,31*7D

$GPGSV,3,2,10,11,31,089,12,33,30,214,,24,27,146,24,28,24,310,17*73

$GPGSV,3,3,10,06,24,052,14,31,01,312,*79

$GPGLL,4604.6229,N,01107.2220,E,142232.00,01,02,ANTSTATUS=OPEN*2B

$GPRMC,142233.000,A,4604.6229,N,01107.2220,E,0.00,13.60,080124,,,A*5C

$GPVTG,13.60,T,,M,0.00,N,0.00,K,A*09

$GPGGA,142233.000,4604.6229,N,01107.2220,E,1,5,1.47,179.9,M,47.7,M,,*50

$GPGSA,A,3,25,12,24,32,29,,,,,,,,1.76,1.47,0.97*5,69,302,32,12,65,059,14,29,37,210,21,32,35,269,31*7C

$GPGSV,3,2,10,11,31,089,12,33,30,214,,24,27,146,25,28,24,310,17*72

$GPGSV,3,3,10,06,24,052,14,31,01,312,*79

$GPGLL,4604.6229,N,01107.2220,E,142233.000,A,A*50

$GPTXT,01,01,02,ANTSTATUS=OPEN*2B

$GPRM.6229,N,01107.2220,E,0.00,13.60,080124,,,A*5B

$GPVTG,13.60,T,,M,0.00,N,0.00,K,A*09

$GPGGA,142234.000,4604.6229,N,01107.2220,E,1,5,1.47,179.9,M,47.7,M,,*57

$GPGSA,A,3,25,12,24,32,29,,,,,,,,1.76,1.47,0.97*06

$GPGSV,3,1,10,25,69,302,32,12,65,059,16,29,37,*7D

$GPGSV,3,2,10,11,31,089,12,33,30,214,,24,27,146,25,28,24,310,17*72

$GPGSV,3,3,10,06,24,052,14,31,01,312,*79

$GPGLL,4604.6229,N,01107.2220,E,142234.000,A,A*57

$GPTXT,01,01,02,ANTSTATUS=OPEN*2B

$GPRMC,142235.000,A,4604.6229,N,01107.2220,E,0.00,13.60VTG,13.60,T,,M,0.00,N,0.00,K,A*09

$GPGGA,142235.000,4604.6229,N,01107.2220,E,1,5,1.47,179.9,M,47.7,M,,*56

$GPGSA,A,3,25,12,24,32,29,,,,,,,,1.76,1.47,0.97*06

$GPGSV,3,1,10,25,69,302,32,12,65,059,13,29,37,210,22,32,35,269,31*78

$GPGSV,3,2,10,11,31,089,,3,25,28,24,310,17*71

$GPGSV,3,3,10,06,24,052,14,31,01,312,*79

$GPGLL,4604.6229,N,01107.2220,E,142235.000,A,A*56

$GPTXT,01,01,02,ANTSTATUS=OPEN*2B

$GPRMC,142236.000,A,4604.6229,N,01107.2220,E,0.00,13.60,080124,,,A*59

$GPVTG,13.60,T,,M,0.00,N,0.00,K,A*09,4604.6229,N,01107.2220,E,1,5,1.47,179.9,M,47.7,M,,*55

$GPGSA,A,3,25,12,24,32,29,,,,,,,,1.76,1.47,0.97*06

$GPGSV,3,1,10,25,69,302,32,12,65,059,14,29,37,210,22,32,35,269,31*7F

$GPGSV,3,2,10,11,31,089,,33,30,214,,24,27,146,26,28,24,310,18*7D

$GPGSV,3,3,11,312,*79

$GPGLL,4604.6229,N,01107.2220,E,142236.000,A,A*55

$GPTXT,01,01,02,ANTSTATUS=OPEN*2B

$GPRMC,142237.000,A,4604.6229,N,01107.2220,E,0.00,13.60,080124,,,A*58

$GPVTG,13.60,T,,M,0.00,N,0.00,K,A*09

$GPGGA,142237.000,4604.6229,N,01107.2220,E,1,5,1.454

$GPGSA,A,3,25,12,24,32,29,,,,,,,,1.76,1.47,0.97*06

$GPGSV,3,1,10,25,69,302,32,12,65,059,15,29,37,210,21,32,35,269,31*7D

$GPGSV,3,2,10,11,31,089,14,33,30,214,,24,27,146,26,28,24,310,18*78

$GPGSV,3,3,10,06,24,052,14,31,01,312,*79

$GPGLL,4604.6229,N,0000,A,A*54

$GPTXT,01,01,02,ANTSTATUS=OPEN*2B

$GPRMC,142238.000,A,4604.6229,N,01107.2220,E,0.00,13.60,080124,,,A*57

$GPVTG,13.60,T,,M,0.00,N,0.00,K,A*09

$GPGGA,142238.000,4604.6229,N,01107.2220,E,1,5,1.47,179.9,M,47.7,M,,*5B

$GPGSA,A,3,25,12,24,32,29,,7*06

$GPGSV,3,1,10,25,69,302,32,12,65,059,15,29,37,210,21,32,35,269,30*7C

$GPGSV,3,2,10,11,31,089,14,33,30,214,,24,27,146,26,28,24,310,18*78

$GPGSV,3,3,10,06,24,052,14,31,01,312,*79

$GPGLL,4604.6229,N,01107.2220,E,142238.000,A,A*5B

$GPTXT,01,01,02,ANT

$GPRMC,142239.000,A,4604.6229,N,01107.2220,E,0.00,13.60,080124,,,A*56

$GPVTG,13.60,T,,M,0.00,N,0.00,K,A*09

$GPGGA,142239.000,4604.6229,N,01107.2220,E,1,5,1.47,179.9,M,47.7,M,,*5A

$GPGSA,A,3,25,12,24,32,29,,,,,,,,1.76,1.47,0.97*06

$GPGSV,3,1,10,25,69,329,37,210,21,32,35,269,30*7C

$GPGSV,3,2,10,11,31,089,14,33,30,214,,24,27,146,27,28,24,310,18*79

$GPGSV,3,3,10,06,24,052,14,31,01,312,*79

$GPGLL,4604.6229,N,01107.2220,E,142239.000,A,A*5A

$GPTXT,01,01,02,ANTSTATUS=OPEN*2B

$GPRMC,142240.000,A,4604.6229,,13.60,080124,,,A*58

$GPVTG,13.60,T,,M,0.00,N,0.00,K,A*09

$GPGGA,142240.000,4604.6229,N,01107.2220,E,1,5,1.47,179.9,M,47.7,M,,*54

$GPGSA,A,3,25,12,24,32,29,,,,,,,,1.76,1.47,0.97*06

$GPGSV,3,1,10,25,69,302,32,12,65,059,14,29,37,210,21,32,35,269,30*7D

$089,11,24,27,146,28,28,24,310,18,06,24,052,15*74

$GPGSV,3,3,10,40,16,118,,31,01,312,*70

$GPGLL,4604.6229,N,01107.2220,E,142240.000,A,A*54

$GPTXT,01,01,02,ANTSTATUS=OPEN*2B

$GPRMC,142241.000,A,4604.6229,N,01107.2220,E,0.00,13.60,080124,,,A*59

$GPVTG,130,K,A*09

$GPGGA,142241.000,4604.6229,N,01107.2220,E,1,5,1.47,179.9,M,47.7,M,,*55

$GPGSA,A,3,25,12,24,32,29,,,,,,,,1.76,1.47,0.97*06

$GPGSV,3,1,10,25,69,302,31,12,65,059,13,29,37,210,21,32,35,269,29*71

$GPGSV,3,2,10,11,31,089,12,24,27,146,28,28,24,310,1$GPGSV,3,3,10,40,16,118,,31,01,312,*70

$GPGLL,4604.6229,N,01107.2220,E,142241.000,A,A*55

$GPTXT,01,01,02,ANTSTATUS=OPEN*2B

$GPRMC,142242.000,A,4604.6229,N,01107.2220,E,0.00,13.60,080124,,,A*5A

$GPVTG,13.60,T,,M,0.00,N,0.00,K,A*09

$GPGGA,142242.000,460,E,1,5,1.47,179.9,M,47.7,M,,*56

$GPGSA,A,3,25,12,24,32,29,,,,,,,,1.76,1.47,0.97*06

$GPGSV,3,1,10,25,69,302,31,12,65,059,13,29,37,210,21,32,35,269,29*71

$GPGSV,3,2,10,11,31,089,,24,27,146,28,28,24,310,18,06,24,052,15*74

$GPGSV,3,3,10,40,16,118,,31,01,316229,N,01107.2220,E,142242.000,A,A*56

$GPTXT,01,01,02,ANTSTATUS=OPEN*2B

$GPRMC,142243.000,A,4604.6229,N,01107.2220,E,0.00,13.60,080124,,,A*5B

$GPVTG,13.60,T,,M,0.00,N,0.00,K,A*09

$GPGGA,142243.000,4604.6229,N,01107.2220,E,1,5,1.47,179.9,M,47.7,M,,*57

,32,29,,,,,,,,1.76,1.47,0.97*06

$GPGSV,3,1,10,25,69,302,31,12,65,059,13,29,37,210,21,32,35,269,29*71

$GPGSV,3,2,10,11,31,089,,24,27,146,28,28,24,310,17,06,24,052,15*7B

$GPGSV,3,3,10,40,16,118,,31,01,312,*70

$GPGLL,4604.6229,N,01107.2220,E,142243.000,A,02,ANTSTATUS=OPEN*2B

$GPRMC,142244.000,A,4604.6229,N,01107.2220,E,0.00,13.60,080124,,,A*5C

$GPVTG,13.60,T,,M,0.00,N,0.00,K,A*09

$GPGGA,142244.000,4604.6229,N,01107.2220,E,1,5,1.47,179.9,M,47.7,M,,*50

$GPGSA,A,3,25,12,24,32,29,,,,,,,,1.76,1.47,0.97*06

,302,31,12,65,059,13,29,37,210,21,32,35,269,29*71

$GPGSV,3,2,10,11,31,089,,24,27,146,28,28,24,310,17,06,24,052,15*7B

$GPGSV,3,3,10,40,16,118,,31,01,312,*70

$GPGLL,4604.6229,N,01107.2220,E,142244.000,A,A*50

$GPTXT,01,01,02,ANTSTATUS=OPEN*2B

$GPRMC,1422N,01107.2220,E,0.00,13.60,080124,,,A*5D

$GPVTG,13.60,T,,M,0.00,N,0.00,K,A*09

$GPGGA,142245.000,4604.6229,N,01107.2220,E,1,5,1.47,179.9,M,47.7,M,,*51

$GPGSA,A,3,25,12,24,32,29,,,,,,,,1.76,1.47,0.97*06

$GPGSV,3,1,10,25,69,302,31,12,65,059,16,29,37,210,21GPGSV,3,2,10,11,31,089,,24,27,146,28,28,24,310,17,06,24,052,15*7B

$GPGSV,3,3,10,40,16,118,,31,01,312,*70

$GPGLL,4604.6229,N,01107.2220,E,142245.000,A,A*51

$GPTXT,01,01,02,ANTSTATUS=OPEN*2B

$GPRMC,142246.000,A,4604.6229,N,01107.2220,E,0.00,13.60,080124,0,T,,M,0.00,N,0.00,K,A*09

$GPGGA,142246.000,4604.6229,N,01107.2220,E,1,5,1.47,179.9,M,47.7,M,,*52

$GPGSA,A,3,25,12,24,32,29,,,,,,,,1.76,1.47,0.97*06

$GPGSV,3,1,10,25,69,302,31,12,65,059,17,29,37,210,20,32,35,269,28*75

$GPGSV,3,2,10,11,31,089,,24,27,146,24,052,15*7B

$GPGSV,3,3,10,40,16,118,,31,01,312,*70

$GPGLL,4604.6229,N,01107.2220,E,142246.000,A,A*52

$GPTXT,01,01,02,ANTSTATUS=OPEN*2B

$GPRMC,142247.000,A,4604.6229,N,01107.2220,E,0.00,13.60,080124,,,A*5F

$GPVTG,13.60,T,,M,0.00,N,0.00,K,A*09

$GPGGA29,N,01107.2220,E,1,5,1.47,179.9,M,47.7,M,,*53

$GPGSA,A,3,25,12,24,32,29,,,,,,,,1.76,1.47,0.97*06

$GPGSV,3,1,10,25,69,302,31,12,65,059,17,29,37,210,20,32,35,269,27*7A

$GPGSV,3,2,10,11,31,089,,24,27,146,29,28,25,310,17,06,24,052,16*78

$GPGSV,3,3,10,40,10

$GPGLL,4604.6229,N,01107.2220,E,142247.000,A,A*53

$GPTXT,01,01,02,ANTSTATUS=OPEN*2B

$GPRMC,142248.000,A,4604.6229,N,01107.2220,E,0.00,13.60,080124,,,A*50

$GPVTG,13.60,T,,M,0.00,N,0.00,K,A*09

$GPGGA,142248.000,4604.6229,N,01107.2220,E,1,5,2.25,179.9,SA,A,3,25,12,24,32,29,,,,,,,,4.90,2.25,4.36*03

$GPGSV,3,1,10,25,69,302,31,12,65,059,17,29,37,210,20,32,35,269,27*7A

$GPGSV,3,2,10,11,31,089,,24,27,146,29,28,25,310,17,06,24,052,16*78

$GPGSV,3,3,10,40,16,118,,31,01,312,*70

$GPGLL,4604.6229,N,01107.2220,

$GPTXT,01,01,02,ANTSTATUS=OPEN*2B

$GPRMC,142249.000,A,4604.6229,N,01107.2220,E,0.00,13.60,080124,,,A*51

$GPVTG,13.60,T,,M,0.00,N,0.00,K,A*09

$GPGGA,142249.000,4604.6229,N,01107.2220,E,1,5,1.47,179.9,M,47.7,M,,*5D

$GPGSA,A,3,25,12,24,32,29,,,,,,,,1.76SV,3,1,10,25,69,302,31,12,65,059,17,29,37,210,20,32,35,269,27*7A

$GPGSV,3,2,10,11,31,089,,24,27,146,29,28,25,310,17,06,24,052,16*78

$GPGSV,3,3,10,44,15,117,,31,01,312,*78

$GPGLL,4604.6229,N,01107.2220,E,142249.000,A,A*5D

$GPTXT,01,01,02,ANTSTATUS=OPEN*

$GPRMC,142250.000,A,4604.6229,N,01107.2220,E,0.00,13.60,080124,,,A*59

$GPVTG,13.60,T,,M,0.00,N,0.00,K,A*09

$GPGGA,142250.000,4604.6229,N,01107.2220,E,1,5,1.47,179.9,M,47.7,M,,*55

$GPGSA,A,3,25,12,24,32,29,,,,,,,,1.76,1.47,0.97*06

$GPGSV,3,1,10,25,69,329,37,210,20,32,35,269,26*74

$GPGSV,3,2,10,11,31,089,,24,27,146,29,28,25,310,17,06,24,052,16*78

$GPGSV,3,3,10,44,15,117,,31,01,312,*78

$GPGLL,4604.6229,N,01107.2220,E,142250.000,A,A*55

$GPTXT,01,01,02,ANTSTATUS=OPEN*2B

$GPRMC,142251.000,A,4604.6229,N,3.60,080124,,,A*58

$GPVTG,13.60,T,,M,0.00,N,0.00,K,A*09

$GPGGA,142251.000,4604.6229,N,01107.2220,E,1,5,1.47,179.9,M,47.7,M,,*54

$GPGSA,A,3,25,12,24,32,29,,,,,,,,1.76,1.47,0.97*06

$GPGSV,3,1,10,25,69,302,32,12,65,059,19,29,37,210,20,32,34,269,26*77

$GP9,,24,27,146,29,28,25,310,17,06,24,052,16*78

$GPGSV,3,3,10,44,15,117,,31,01,312,*78

$GPGLL,4604.6229,N,01107.2220,E,142251.000,A,A*54

$GPTXT,01,01,02,ANTSTATUS=OPEN*2B

$GPRMC,142252.000,A,4604.6229,N,01107.2220,E,0.00,13.60,080124,,,A*5B

$GPVTG,13.60,A*09

$GPGGA,142252.000,4604.6229,N,01107.2220,E,1,5,1.47,179.9,M,47.7,M,,*57

$GPGSA,A,3,25,12,24,32,29,,,,,,,,1.76,1.47,0.97*06

$GPGSV,3,1,10,25,69,302,32,12,65,059,19,29,37,210,20,32,34,269,26*77

$GPGSV,3,2,10,11,31,089,,24,27,146,30,28,25,310,17,06,2,3,3,10,44,15,117,,31,01,312,*78

$GPGLL,4604.6229,N,01107.2220,E,142252.000,A,A*57

$GPTXT,01,01,02,ANTSTATUS=OPEN*2B

$GPRMC,142253.000,A,4604.6229,N,01107.2220,E,0.00,13.60,080124,,,A*5A

$GPVTG,13.60,T,,M,0.00,N,0.00,K,A*09

$GPGGA,142253.000,4604.6229,1.47,179.9,M,47.7,M,,*56

$GPGSA,A,3,25,12,24,32,29,,,,,,,,1.76,1.47,0.97*06

$GPGSV,3,1,10,25,69,302,32,12,65,059,19,29,37,210,20,32,34,269,25*74

$GPGSV,3,2,10,11,31,089,,24,27,146,30,28,25,310,17,06,24,052,16*70

$GPGSV,3,3,10,44,15,117,,31,01,312,*78

,01107.2220,E,142253.000,A,A*56

$GPTXT,01,01,02,ANTSTATUS=OPEN*2B

$GPRMC,142254.000,A,4604.6229,N,01107.2220,E,0.00,13.60,080124,,,A*5D

$GPVTG,13.60,T,,M,0.00,N,0.00,K,A*09

$GPGGA,142254.000,4604.6229,N,01107.2220,E,1,5,1.47,179.9,M,47.7,M,,*51

$GPGSA,,,,,,,,1.76,1.47,0.97*06

$GPGSV,3,1,10,25,69,302,32,12,65,059,19,29,37,210,21,32,34,269,24*74

$GPGSV,3,2,10,11,31,089,,24,27,146,30,28,25,310,17,06,24,052,16*70

$GPGSV,3,3,10,44,15,117,,31,01,312,*78

$GPGLL,4604.6229,N,01107.2220,E,142254.000,A,A*51

STATUS=OPEN*2B

$GPRMC,142255.000,A,4604.6229,N,01107.2220,E,0.00,13.60,080124,,,A*5C

$GPVTG,13.60,T,,M,0.00,N,0.00,K,A*09

$GPGGA,142255.000,4604.6229,N,01107.2220,E,1,5,1.47,179.9,M,47.7,M,,*50

$GPGSA,A,3,25,12,24,32,29,,,,,,,,1.76,1.47,0.97*06

$GPGSV2,12,65,059,19,29,37,210,21,32,34,269,23*73

$GPGSV,3,2,10,11,31,089,,24,27,146,30,28,25,310,17,06,24,052,16*70

$GPGSV,3,3,10,44,15,117,,31,01,312,*78

$GPGLL,4604.6229,N,01107.2220,E,142255.000,A,A*50

$GPTXT,01,01,02,ANTSTATUS=OPEN*2B

$GPRMC,142256.0007.2220,E,0.00,13.60,080124,,,A*5F

$GPVTG,13.60,T,,M,0.00,N,0.00,K,A*09

$GPGGA,142256.000,4604.6229,N,01107.2220,E,1,5,1.47,179.9,M,47.7,M,,*53

$GPGSA,A,3,25,12,24,32,29,,,,,,,,1.76,1.47,0.97*06

$GPGSV,3,1,10,25,69,302,32,12,65,059,19,29,37,210,20,32,343,2,10,11,31,089,,24,27,146,30,28,25,310,17,06,24,052,16*70

$GPGSV,3,3,10,44,15,117,,31,01,312,*78

$GPGLL,4604.6229,N,01107.2220,E,142256.000,A,A*53

$GPTXT,01,01,02,ANTSTATUS=OPEN*2B

$GPRMC,142257.000,A,4604.6229,N,01107.2220,E,0.00,13.60,080124,,,A*5E,0.00,N,0.00,K,A*09

$GPGGA,142257.000,4604.6229,N,01107.2220,E,1,5,1.47,179.9,M,47.7,M,,*52

$GPGSA,A,3,25,12,24,32,29,,,,,,,,1.76,1.47,0.97*06

$GPGSV,3,1,10,25,69,302,32,12,65,059,19,29,37,210,19,32,34,269,22*79

$GPGSV,3,2,10,11,31,089,,24,27,146,30,282,16*70

$GPGSV,3,3,10,44,15,117,,31,01,312,*78

$GPGLL,4604.6229,N,01107.2220,E,142257.000,A,A*52

$GPTXT,01,01,02,ANTSTATUS=OPEN*2B

$GPRMC,142258.000,A,4604.6229,N,01107.2220,E,0.00,13.60,080124,,,A*51

$GPVTG,13.60,T,,M,0.00,N,0.00,K,A*09

$GPGGA,142251107.2220,E,1,5,1.47,179.9,M,47.7,M,,*5D

$GPGSA,A,3,25,12,24,32,29,,,,,,,,1.76,1.47,0.97*06

$GPGSV,3,1,10,25,69,302,32,12,65,059,19,29,37,210,19,32,34,269,21*7A

$GPGSV,3,2,10,11,31,089,,24,27,146,30,28,25,310,17,06,24,052,16*70

$GPGSV,3,3,10,44,15,117,GLL,4604.6229,N,01107.2220,E,142258.000,A,A*5D

$GPTXT,01,01,02,ANTSTATUS=OPEN*2B

$GPRMC,142259.000,A,4604.6229,N,01107.2220,E,0.00,13.60,080124,,,A*50

$GPVTG,13.60,T,,M,0.00,N,0.00,K,A*09

$GPGGA,142259.000,4604.6229,N,01107.2220,E,1,5,1.47,179.9,M,47.7,25,12,24,32,29,,,,,,,,1.76,1.47,0.97*06

$GPGSV,3,1,10,25,69,302,32,12,65,059,18,29,37,210,19,32,34,269,20*7A

$GPGSV,3,2,10,11,31,089,,24,27,146,30,28,25,310,16,06,24,052,16*71

$GPGSV,3,3,10,31,01,312,,34,,,*4C

$GPGLL,4604.6229,N,01107.2220,E,142259.00,01,02,ANTSTATUS=OPEN*2B

$GPRMC,142300.000,A,4604.6203,N,01107.2184,E,0.86,229.36,080124,,,A*6E

$GPVTG,229.36,T,,M,0.86,N,1.59,K,A*32

$GPGGA,142300.000,4604.6203,N,01107.2184,E,1,5,1.47,179.0,M,47.7,M,,*5D

$GPGSA,A,3,25,12,24,32,29,,,,,,,,1.76,1.47,0.9,25,69,302,32,12,65,059,18,29,37,210,19,32,34,269,19*70

$GPGSV,3,2,10,11,31,089,,24,27,146,31,28,25,310,16,06,24,052,17*71

$GPGSV,3,3,10,31,01,312,,34,,,*4C

$GPGLL,4604.6203,N,01107.2184,E,142300.000,A,A*54

$GPTXT,01,01,02,ANTSTATUS=OPEN*2B

$GPRMC,142,N,01107.2179,E,0.88,227.19,080124,,,A*62

$GPVTG,227.19,T,,M,0.88,N,1.63,K,A*36

$GPGGA,142301.000,4604.6201,N,01107.2179,E,1,5,1.47,179.0,M,47.7,M,,*5C

$GPGSA,A,3,25,12,24,32,29,,,,,,,,1.76,1.47,0.97*06

$GPGSV,3,1,10,25,69,302,32,12,65,059,18,29,37,210

$GPGSV,3,2,10,11,31,089,,24,27,146,31,28,25,310,16,06,24,052,17*71

$GPGSV,3,3,10,31,01,312,,34,,,*4C

$GPGLL,4604.6201,N,01107.2179,E,142301.000,A,A*55

$GPTXT,01,01,02,ANTSTATUS=OPEN*2B

$GPRMC,142302.000,A,4604.6198,N,01107.2172,E,1.00,227.17,080124,,7,T,,M,1.00,N,1.85,K,A*31

$GPGGA,142302.000,4604.6198,N,01107.2172,E,1,5,1.47,179.1,M,47.7,M,,*56

$GPGSA,A,3,25,12,24,32,29,,,,,,,,1.76,1.47,0.97*06

$GPGSV,3,1,10,25,69,302,32,12,65,059,18,29,37,210,19,32,34,269,17*7E

$GPGSV,3,2,10,11,31,089,,24,27,146,24,052,17*71

$GPGSV,3,3,10,31,01,312,,34,,,*4C

$GPGLL,4604.6198,N,01107.2172,E,142302.000,A,A*5E

$GPTXT,01,01,02,ANTSTATUS=OPEN*2B

$GPRMC,142303.000,A,4604.6194,N,01107.2165,E,1.08,230.02,080124,,,A*67

$GPVTG,230.02,T,,M,1.08,N,2.00,K,A*35

$GPGGA,14N,01107.2165,E,1,5,1.47,179.1,M,47.7,M,,*5D

$GPGSA,A,3,25,12,24,32,29,,,,,,,,1.76,1.47,0.97*06

$GPGSV,3,1,10,25,69,302,31,12,65,059,18,29,37,210,19,32,34,269,16*7C

$GPGSV,3,2,10,11,31,089,,24,27,146,31,28,25,310,16,06,24,052,17*71

$GPGSV,3,3,10,31,01,3L,4604.6194,N,01107.2165,E,142303.000,A,A*55

$GPTXT,01,01,02,ANTSTATUS=OPEN*2B

$GPRMC,142304.000,A,4604.6194,N,01107.2159,E,1.07,239.41,080124,,,A*6E

$GPVTG,239.41,T,,M,1.07,N,1.98,K,A*36

$GPGGA,142304.000,4604.6194,N,01107.2159,E,1,5,1.46,179.2,M,47.7,25,12,24,32,29,,,,,,,,1.76,1.46,0.97*07

$GPGSV,3,1,10,25,69,302,31,12,65,059,18,29,37,210,19,32,34,269,15*7F

$GPGSV,3,2,10,11,31,089,,24,27,146,31,28,25,310,16,06,24,052,17*71

$GPGSV,3,3,10,31,01,312,,34,,,*4C

$GPGLL,4604.6194,N,01107.2159,E,142304.00,01,02,ANTSTATUS=OPEN*2B

$GPRMC,142305.000,A,4604.6192,N,01107.2153,E,1.07,240.18,080124,,,A*61

$GPVTG,240.18,T,,M,1.07,N,1.98,K,A*34

$GPGGA,142305.000,4604.6192,N,01107.2153,E,1,5,1.47,179.3,M,47.7,M,,*5A

$GPGSA,A,3,25,12,24,32,29,,,,,,,,1.76,1.47,0.9,25,69,302,31,12,65,059,18,29,37,210,19,32,34,269,13*79

$GPGSV,3,2,10,11,31,088,,24,27,146,31,28,25,310,15,06,24,052,17*73

$GPGSV,3,3,10,31,01,312,,35,,,*4D

$GPGLL,4604.6192,N,01107.2153,E,142305.000,A,A*50

$GPTXT,01,01,02,ANTSTATUS=OPEN*2B

$GPRMC,142,N,01107.2148,E,1.06,236.24,080124,,,A*65

$GPVTG,236.24,T,,M,1.06,N,1.97,K,A*34

$GPGGA,142306.000,4604.6190,N,01107.2148,E,1,5,1.47,179.3,M,47.7,M,,*51

$GPGSA,A,3,25,12,24,32,29,,,,,,,,1.76,1.47,0.97*06

$GPGSV,3,1,10,25,69,302,31,12,64,059,19,29,37,210

$GPGSV,3,2,10,11,31,088,,24,27,146,31,28,25,310,15,06,24,052,18*7C

$GPGSV,3,3,10,31,01,312,,35,,,*4D

$GPGLL,4604.6190,N,01107.2148,E,142306.000,A,A*5B

$GPTXT,01,01,02,ANTSTATUS=OPEN*2B

$GPRMC,142307.000,A,4604.6186,N,01107.2139,E,1.15,236.48,080124,,8,T,,M,1.15,N,2.13,K,A*33

$GPGGA,142307.000,4604.6186,N,01107.2139,E,1,5,1.47,179.4,M,47.7,M,,*56

$GPGSA,A,3,25,12,24,32,29,,,,,,,,1.76,1.47,0.97*06

$GPGSV,3,1,10,25,69,302,31,12,64,059,20,29,37,210,18,32,34,269,13*72

$GPGSV,3,2,10,11,31,088,,24,27,146,24,052,18*7C

$GPGSV,3,3,10,31,01,312,,35,,,*4D

$GPGLL,4604.6186,N,01107.2139,E,142307.000,A,A*5B

$GPTXT,01,01,02,ANTSTATUS=OPEN*2B

$GPRMC,142308.000,A,4604.6183,N,01107.2130,E,1.23,240.13,080124,,,A*64

$GPVTG,240.13,T,,M,1.23,N,2.27,K,A*3E

$GPGGA,14N,01107.2130,E,1,5,1.47,179.5,M,47.7,M,,*54

$GPGSA,A,3,25,12,24,32,29,,,,,,,,1.76,1.47,0.97*06

$GPGSV,3,1,10,25,69,302,31,12,64,059,20,29,37,210,18,32,34,269,15*74

$GPGSV,3,2,10,11,31,088,,24,27,146,31,28,25,310,15,06,24,052,18*7C

$GPGSV,3,3,10,31,01,3L,4604.6183,N,01107.2130,E,142308.000,A,A*58

$GPTXT,01,01,02,ANTSTATUS=OPEN*2B

$GPRMC,142309.000,A,4604.6179,N,01107.2123,E,1.24,231.61,080124,,,A*66

$GPVTG,231.61,T,,M,1.24,N,2.30,K,A*3C

$GPGGA,142309.000,4604.6179,N,01107.2123,E,1,5,1.47,179.6,M,47.7,25,12,24,32,29,,,,,,,,1.76,1.47,0.97*06

$GPGSV,3,1,10,25,69,302,31,12,64,059,20,29,37,210,18,32,34,269,15*74

$GPGSV,3,2,10,11,31,088,,24,27,146,31,28,25,310,15,06,24,052,18*7C

$GPGSV,3,3,10,31,01,312,,35,,,*4D

$GPGLL,4604.6179,N,01107.2123,E,142309.00,01,02,ANTSTATUS=OPEN*2B

$GPRMC,142310.000,A,4604.6177,N,01107.2115,E,1.31,237.27,080124,,,A*65

$GPVTG,237.27,T,,M,1.31,N,2.43,K,A*38

$GPGGA,142310.000,4604.6177,N,01107.2115,E,1,5,1.47,179.6,M,47.7,M,,*52

$GPGSA,A,3,25,12,24,32,29,,,,,,,,1.76,1.47,0.9,25,69,302,31,12,64,059,20,29,37,210,18,32,34,269,13*72

$GPGSV,3,2,10,11,31,088,,24,27,146,31,28,25,310,15,06,24,052,18*7C

$GPGSV,3,3,10,31,01,312,,35,,,*4D

$GPGLL,4604.6177,N,01107.2115,E,142310.000,A,A*5D

$GPTXT,01,01,02,ANTSTATUS=OPEN*2B

$GPRMC,142,N,01107.2110,E,1.29,231.98,080124,,,A*69

$GPVTG,231.98,T,,M,1.29,N,2.38,K,A*3F

$GPGGA,142311.000,4604.6174,N,01107.2110,E,1,5,1.46,179.6,M,47.7,M,,*54

$GPGSA,A,3,25,12,24,32,29,,,,,,,,1.76,1.46,0.97*07

$GPGSV,3,1,10,25,69,302,31,12,64,059,20,29,37,210

$GPGSV,3,2,10,11,31,088,,24,27,146,30,28,25,310,15,06,24,052,18*7D

$GPGSV,3,3,10,31,01,312,,36,,,*4E

$GPGLL,4604.6174,N,01107.2110,E,142311.000,A,A*5A

$GPTXT,01,01,02,ANTSTATUS=OPEN*2B

$GPRMC,142312.000,A,4604.6172,N,01107.2103,E,1.34,236.71,080124,,1,T,,M,1.34,N,2.48,K,A*34

$GPGGA,142312.000,4604.6172,N,01107.2103,E,1,5,1.47,179.6,M,47.7,M,,*52

$GPGSA,A,3,25,12,24,32,29,,,,,,,,1.76,1.47,0.97*06

$GPGSV,3,1,10,25,69,302,31,12,64,059,20,29,37,210,16,32,34,269,16*79

$GPGSV,3,2,10,11,31,088,,24,27,146,24,052,19*7C

$GPGSV,3,3,10,31,01,312,,36,,,*4E

$GPGLL,4604.6172,N,01107.2103,E,142312.000,A,A*5D

$GPTXT,01,01,02,ANTSTATUS=OPEN*2B

$GPRMC,142313.000,A,4604.6169,N,01107.2099,E,1.35,234.76,080124,,,A*6F

$GPVTG,234.76,T,,M,1.35,N,2.49,K,A*31

$GPGGA,14N,01107.2099,E,1,5,1.47,179.8,M,47.7,M,,*55

$GPGSA,A,3,25,12,24,32,29,,,,,,,,1.76,1.47,0.97*06

$GPGSV,3,1,10,25,69,302,31,12,64,059,20,29,37,210,16,32,34,269,17*78

$GPGSV,3,2,10,11,31,088,,24,27,146,30,28,25,310,15,06,24,052,19*7C

$GPGSV,3,3,10,31,01,3L,4604.6169,N,01107.2099,E,142313.000,A,A*54

$GPTXT,01,01,02,ANTSTATUS=OPEN*2B

$GPRMC,142314.000,A,4604.6169,N,01107.2102,E,1.21,235.87,080124,,,A*61

$GPVTG,235.87,T,,M,1.21,N,2.25,K,A*31

$GPGGA,142314.000,4604.6169,N,01107.2102,E,1,5,1.47,180.0,M,47.7,25,12,24,32,29,,,,,,,,1.76,1.47,0.97*06

